,lat,lon,name,admin1,admin2,cc,Country,mapped_unit,isInMap
86,37.12604,69.83045,Rustaq,Takhar, ,AF,Afghanistan,"Rustaq, ,Takhar,Afghanistan",No
145,36.81665,70.10211,Mashhad,Badakhshan, ,AF,Afghanistan,"Mashhad, ,Badakhshan,Afghanistan",No
247,32.01583,65.10721,Chinar,Kandahar, ,AF,Afghanistan,"Chinar, ,Kandahar,Afghanistan",No
325,37.52845,70.4482,March,Badakhshan, ,AF,Afghanistan,"March, ,Badakhshan,Afghanistan",No
327,36.52115,68.89985,Aliabad,Kunduz, ,AF,Afghanistan,"Aliabad, ,Kunduz,Afghanistan",No
334,33.17568,68.73045,Sharan,Paktika,Sharan,AF,Afghanistan,"Sharan,Sharan,Paktika,Afghanistan",No
341,17.02741,-61.78136,Falmouth,Saint Paul, ,AG,Antigua and Barbuda,"Falmouth, ,Saint Paul,Antigua and Barbuda",No
383,40.91333,20.55306,Trebinje,Korce,Rrethi i Pogradecit,AL,Albania,"Trebinje,Rrethi i Pogradecit,Korce,Albania",No
518,41.73583,20.32417,Arras,Diber,Rrethi i Dibres,AL,Albania,"Arras,Rrethi i Dibres,Diber,Albania",No
548,40.75111,19.7375,Strum,Fier,Rrethi i Fierit,AL,Albania,"Strum,Rrethi i Fierit,Fier,Albania",No
585,40.68333,19.61944,Patos,Fier,Rrethi i Fierit,AL,Albania,"Patos,Rrethi i Fierit,Fier,Albania",No
592,41.44417,19.74833,Nikel,Durres,Rrethi i Krujes,AL,Albania,"Nikel,Rrethi i Krujes,Durres,Albania",No
596,41.68389,19.71556,Milot,Lezhe,Rrethi i Kurbinit,AL,Albania,"Milot,Rrethi i Kurbinit,Lezhe,Albania",No
881,40.82572,43.95071,Kamo,Shirak, ,AM,Armenia,"Kamo, ,Shirak,Armenia",No
887,40.15446,44.03815,Armavir,Armavir, ,AM,Armenia,"Armavir, ,Armavir,Armenia",No
903,40.54031,44.86918,Gagarin,Geghark'unik'i Marz, ,AM,Armenia,"Gagarin, ,Geghark'unik'i Marz,Armenia",No
994,40.08444,44.30528,Gay,Armavir, ,AM,Armenia,"Gay, ,Armavir,Armenia",No
1051,-12.30261,15.43358,Chela,Huambo,Municipio Londuimbali,AO,Angola,"Chela,Municipio Londuimbali,Huambo,Angola",No
1053,-77.846,166.676,McMurdo Station, , ,AQ, ,"McMurdo Station, , , ",No
1066,-32.1632,-58.40082,Villa Elisa,Entre Rios, ,AR,Argentina,"Villa Elisa, ,Entre Rios,Argentina",No
1067,-30.79567,-57.91257,Villa del Rosario,Entre Rios, ,AR,Argentina,"Villa del Rosario, ,Entre Rios,Argentina",No
1078,-30.08671,-58.78777,Sauce,Corrientes,Departamento de Sauce,AR,Argentina,"Sauce,Departamento de Sauce,Corrientes,Argentina",No
1079,-35.025,-58.42276,San Vicente,Buenos Aires,Partido de San Vicente,AR,Argentina,"San Vicente,Partido de San Vicente,Buenos Aires,Argentina",No
1080,-26.61667,-54.13333,San Vicente,Misiones, ,AR,Argentina,"San Vicente, ,Misiones,Argentina",No
1083,-28.26318,-58.11891,Santa Rosa,Corrientes, ,AR,Argentina,"Santa Rosa, ,Corrientes,Argentina",No
1084,-27.90357,-55.38541,Santa Maria,Misiones, ,AR,Argentina,"Santa Maria, ,Misiones,Argentina",No
1085,-28.98746,-59.10287,Santa Lucia,Corrientes, ,AR,Argentina,"Santa Lucia, ,Corrientes,Argentina",No
1086,-30.94768,-59.78696,Santa Elena,Entre Rios, ,AR,Argentina,"Santa Elena, ,Entre Rios,Argentina",No
1087,-32.17476,-58.78622,Santa Anita,Entre Rios, ,AR,Argentina,"Santa Anita, ,Entre Rios,Argentina",No
1088,-30.90004,-57.93162,Santa Ana,Entre Rios, ,AR,Argentina,"Santa Ana, ,Entre Rios,Argentina",No
1089,-27.3674,-55.58091,Santa Ana,Misiones, ,AR,Argentina,"Santa Ana, ,Misiones,Argentina",No
1090,-31.62487,-58.50524,San Salvador,Entre Rios, ,AR,Argentina,"San Salvador, ,Entre Rios,Argentina",No
1091,-28.57457,-58.70817,San Roque,Corrientes,Departamento de San Roque,AR,Argentina,"San Roque,Departamento de San Roque,Corrientes,Argentina",No
1092,-33.67913,-59.66663,San Pedro,Buenos Aires,Partido de San Pedro,AR,Argentina,"San Pedro,Partido de San Pedro,Buenos Aires,Argentina",No
1093,-26.62207,-54.10842,San Pedro,Misiones,Departamento de San Pedro,AR,Argentina,"San Pedro,Departamento de San Pedro,Misiones,Argentina",No
1095,-27.99585,-57.58964,San Miguel,Corrientes,Departamento de San Miguel,AR,Argentina,"San Miguel,Departamento de San Miguel,Corrientes,Argentina",No
1097,-28.13306,-58.76733,San Lorenzo,Corrientes, ,AR,Argentina,"San Lorenzo, ,Corrientes,Argentina",No
1101,-27.76979,-55.7826,San Jose,Misiones,Departamento de Apostoles,AR,Argentina,"San Jose,Departamento de Apostoles,Misiones,Argentina",No
1102,-30.57781,-59.9317,San Javier,Santa Fe,Departamento de San Javier,AR,Argentina,"San Javier,Departamento de San Javier,Santa Fe,Argentina",No
1103,-27.87427,-55.13509,San Javier,Misiones,Departamento de San Javier,AR,Argentina,"San Javier,Departamento de San Javier,Misiones,Argentina",No
1104,-34.47145,-58.50776,San Isidro,Buenos Aires,Partido de San Isidro,AR,Argentina,"San Isidro,Partido de San Isidro,Buenos Aires,Argentina",No
1105,-27.25586,-55.5339,San Ignacio,Misiones,Departamento de San Ignacio,AR,Argentina,"San Ignacio,Departamento de San Ignacio,Misiones,Argentina",No
1110,-38.34653,-59.60954,San Cayetano,Buenos Aires,Partido de San Cayetano,AR,Argentina,"San Cayetano,Partido de San Cayetano,Buenos Aires,Argentina",No
1111,-27.74586,-55.89731,San Carlos,Corrientes, ,AR,Argentina,"San Carlos, ,Corrientes,Argentina",No
1121,-34.58333,-58.38333,Retiro,Buenos Aires F.D., ,AR,Argentina,"Retiro, ,Buenos Aires F.D.,Argentina",No
1144,-34.74974,-58.68697,Pontevedra,Buenos Aires, ,AR,Argentina,"Pontevedra, ,Buenos Aires,Argentina",No
1148,-36.00058,-58.14391,Pila,Buenos Aires, ,AR,Argentina,"Pila, ,Buenos Aires,Argentina",No
1149,-31.18623,-59.95957,Piedras Blancas,Entre Rios, ,AR,Argentina,"Piedras Blancas, ,Entre Rios,Argentina",No
1155,-27.72369,-54.91515,Panambi,Misiones, ,AR,Argentina,"Panambi, ,Misiones,Argentina",No
1166,-35.00559,-59.27699,Navarro,Buenos Aires,Partido de Navarro,AR,Argentina,"Navarro,Partido de Navarro,Buenos Aires,Argentina",No
1167,-34.65344,-58.61975,Moron,Buenos Aires,Partido de Moron,AR,Argentina,"Moron,Partido de Moron,Buenos Aires,Argentina",No
1172,-38.27161,-57.8389,Miramar,Buenos Aires, ,AR,Argentina,"Miramar, ,Buenos Aires,Argentina",No
1186,-35.08065,-57.51301,Magdalena,Buenos Aires,Partido de Magdalena,AR,Argentina,"Magdalena,Partido de Magdalena,Buenos Aires,Argentina",No
1187,-32.1722,-59.39947,Macia,Entre Rios, ,AR,Argentina,"Macia, ,Entre Rios,Argentina",No
1193,-27.76834,-57.27531,Loreto,Corrientes, ,AR,Argentina,"Loreto, ,Corrientes,Argentina",No
1194,-27.33635,-55.52225,Loreto,Misiones,Departamento de Candelaria,AR,Argentina,"Loreto,Departamento de Candelaria,Misiones,Argentina",No
1199,-30.043,-57.8202,Libertad,Corrientes, ,AR,Argentina,"Libertad, ,Corrientes,Argentina",No
1204,-36.01403,-59.09984,Las Flores,Buenos Aires,Partido de Las Flores,AR,Argentina,"Las Flores,Partido de Las Flores,Buenos Aires,Argentina",No
1207,-30.74485,-59.64566,La Paz,Entre Rios,Departamento de La Paz,AR,Argentina,"La Paz,Departamento de La Paz,Entre Rios,Argentina",No
1215,-29.17443,-56.64326,La Cruz,Corrientes, ,AR,Argentina,"La Cruz, ,Corrientes,Argentina",No
1225,-32.43516,-58.62462,Herrera,Entre Rios, ,AR,Argentina,"Herrera, ,Entre Rios,Argentina",No
1254,-27.41813,-59.02392,Fontana,Chaco, ,AR,Argentina,"Fontana, ,Chaco,Argentina",No
1263,-34.86186,-57.91126,Ensenada,Buenos Aires,Partido de Ensenada,AR,Argentina,"Ensenada,Partido de Ensenada,Buenos Aires,Argentina",No
1266,-26.40484,-54.62478,Eldorado,Misiones,Departamento de Eldorado,AR,Argentina,"Eldorado,Departamento de Eldorado,Misiones,Argentina",No
1282,-28.39175,-57.88777,Concepcion,Corrientes,Departamento de Concepcion,AR,Argentina,"Concepcion,Departamento de Concepcion,Corrientes,Argentina",No
1290,-32.22337,-58.14341,Colon,Entre Rios, ,AR,Argentina,"Colon, ,Entre Rios,Argentina",No
1299,-27.6331,-55.4962,Cerro Azul,Misiones, ,AR,Argentina,"Cerro Azul, ,Misiones,Argentina",No
1311,-27.4595,-55.74536,Candelaria,Misiones,Departamento de Candelaria,AR,Argentina,"Candelaria,Departamento de Candelaria,Misiones,Argentina",No
1314,-27.2077,-54.97977,Campo Grande,Misiones, ,AR,Argentina,"Campo Grande, ,Misiones,Argentina",No
1324,-37.67188,-59.80653,Benito Juarez,Buenos Aires, ,AR,Argentina,"Benito Juarez, ,Buenos Aires,Argentina",No
1325,-28.50918,-59.04009,Bella Vista,Corrientes,Departamento de Bella Vista,AR,Argentina,"Bella Vista,Departamento de Bella Vista,Corrientes,Argentina",No
1333,-37.15185,-58.48691,Ayacucho,Buenos Aires,Partido de Ayacucho,AR,Argentina,"Ayacucho,Partido de Ayacucho,Buenos Aires,Argentina",No
1350,-38.75,-68.18333,Vista Alegre,Neuquen, ,AR,Argentina,"Vista Alegre, ,Neuquen,Argentina",No
1354,-29.41347,-62.78822,Villa Union,Santiago del Estero, ,AR,Argentina,"Villa Union, ,Santiago del Estero,Argentina",No
1355,-29.31595,-68.22658,Villa Union,La Rioja, ,AR,Argentina,"Villa Union, ,La Rioja,Argentina",No
1365,-32.89722,-68.78038,Villa Nueva,Mendoza, ,AR,Argentina,"Villa Nueva, ,Mendoza,Argentina",No
1366,-32.43293,-63.24763,Villa Nueva,Cordoba, ,AR,Argentina,"Villa Nueva, ,Cordoba,Argentina",No
1382,-31.5566,-63.53452,Villa del Rosario,Cordoba, ,AR,Argentina,"Villa del Rosario, ,Cordoba,Argentina",No
1387,-29.00295,-68.21277,Villa Castelli,La Rioja, ,AR,Argentina,"Villa Castelli, ,La Rioja,Argentina",No
1400,-32.61841,-60.15478,Victoria,Entre Rios,Departamento de Victoria,AR,Argentina,"Victoria,Departamento de Victoria,Entre Rios,Argentina",No
1409,-31.11732,-64.48084,Valle Hermoso,Cordoba, ,AR,Argentina,"Valle Hermoso, ,Cordoba,Argentina",No
1415,-35.15282,-65.94602,Union,San Luis, ,AR,Argentina,"Union, ,San Luis,Argentina",No
1432,-31.55574,-64.00947,Toledo,Cordoba, ,AR,Argentina,"Toledo, ,Cordoba,Argentina",No
1448,-30.50798,-66.5298,Tama,La Rioja, ,AR,Argentina,"Tama, ,La Rioja,Argentina",No
1462,-29.76776,-62.0477,Selva,Santiago del Estero, ,AR,Argentina,"Selva, ,Santiago del Estero,Argentina",No
1478,-36.61667,-64.28333,Santa Rosa,La Pampa, ,AR,Argentina,"Santa Rosa, ,La Pampa,Argentina",No
1479,-33.25407,-68.14937,Santa Rosa,Mendoza, ,AR,Argentina,"Santa Rosa, ,Mendoza,Argentina",No
1480,-26.69547,-66.04732,Santa Maria,Catamarca, ,AR,Argentina,"Santa Maria, ,Catamarca,Argentina",No
1482,-31.53987,-68.49503,Santa Lucia,San Juan,Departamento de Santa Lucia,AR,Argentina,"Santa Lucia,Departamento de Santa Lucia,San Juan,Argentina",No
1483,-36.22724,-66.9424,Santa Isabel,La Pampa, ,AR,Argentina,"Santa Isabel, ,La Pampa,Argentina",No
1486,-24.30921,-64.66253,Santa Clara,Jujuy, ,AR,Argentina,"Santa Clara, ,Jujuy,Argentina",No
1487,-21.94467,-66.05219,Santa Catalina,Jujuy,Departamento de Santa Catalina,AR,Argentina,"Santa Catalina,Departamento de Santa Catalina,Jujuy,Argentina",No
1491,-27.95386,-65.16651,San Pedro,Santiago del Estero,Departamento de Guasayan,AR,Argentina,"San Pedro,Departamento de Guasayan,Santiago del Estero,Argentina",No
1492,-24.23127,-64.86614,San Pedro,Jujuy,Departamento de San Pedro,AR,Argentina,"San Pedro,Departamento de San Pedro,Jujuy,Argentina",No
1497,-33.08103,-68.46814,San Martin,Mendoza, ,AR,Argentina,"San Martin, ,Mendoza,Argentina",No
1498,-31.42957,-68.50065,San Martin,San Juan,Departamento de San Martin,AR,Argentina,"San Martin,Departamento de San Martin,San Juan,Argentina",No
1500,-32.74341,-60.73613,San Lorenzo,Santa Fe,Departamento de San Lorenzo,AR,Argentina,"San Lorenzo,Departamento de San Lorenzo,Santa Fe,Argentina",No
1505,-28.38333,-65.7,San Jose,Catamarca,Departamento de Fray Mamerto Esquiu,AR,Argentina,"San Jose,Departamento de Fray Mamerto Esquiu,Catamarca,Argentina",No
1507,-28.46265,-65.72585,San Isidro,Catamarca, ,AR,Argentina,"San Isidro, ,Catamarca,Argentina",No
1510,-31.42797,-62.08266,San Francisco,Cordoba, ,AR,Argentina,"San Francisco, ,Cordoba,Argentina",No
1512,-30.31053,-61.23724,San Cristobal,Santa Fe,Departamento de San Cristobal,AR,Argentina,"San Cristobal,Departamento de San Cristobal,Santa Fe,Argentina",No
1515,-31.17761,-65.10245,San Carlos,Cordoba,Departamento de Minas,AR,Argentina,"San Carlos,Departamento de Minas,Cordoba,Argentina",No
1516,-25.88618,-65.92941,San Carlos,Salta,Departamento de San Carlos,AR,Argentina,"San Carlos,Departamento de San Carlos,Salta,Argentina",No
1518,-27.28782,-60.71252,San Bernardo,Chaco, ,AR,Argentina,"San Bernardo, ,Chaco,Argentina",No
1519,-31.78371,-60.44156,San Benito,Entre Rios, ,AR,Argentina,"San Benito, ,Entre Rios,Argentina",No
1520,-33.49763,-64.31495,San Basilio,Cordoba, ,AR,Argentina,"San Basilio, ,Cordoba,Argentina",No
1524,-28.93313,-65.09745,San Antonio,Catamarca,Departamento de La Paz,AR,Argentina,"San Antonio,Departamento de La Paz,Catamarca,Argentina",No
1525,-28.00927,-65.71218,San Antonio,Catamarca,Departamento de Paclin,AR,Argentina,"San Antonio,Departamento de Paclin,Catamarca,Argentina",No
1526,-24.36753,-65.33471,San Antonio,Jujuy,Departamento de San Antonio,AR,Argentina,"San Antonio,Departamento de San Antonio,Jujuy,Argentina",No
1528,-31.97681,-64.374,San Agustin,Cordoba, ,AR,Argentina,"San Agustin, ,Cordoba,Argentina",No
1531,-34.29292,-60.25455,Salto,Buenos Aires,Partido de Salto,AR,Argentina,"Salto,Partido de Salto,Buenos Aires,Argentina",No
1533,-31.13725,-64.29589,Salsipuedes,Cordoba, ,AR,Argentina,"Salsipuedes, ,Cordoba,Argentina",No
1543,-34.19528,-60.735,Rojas,Buenos Aires,Partido de Rojas,AR,Argentina,"Rojas,Partido de Rojas,Buenos Aires,Argentina",No
1544,-30.21186,-69.13661,Rodeo,San Juan, ,AR,Argentina,"Rodeo, ,San Juan,Argentina",No
1552,-53.78769,-67.70946,Rio Grande,Tierra del Fuego, ,AR,Argentina,"Rio Grande, ,Tierra del Fuego,Argentina",No
1557,-22.44083,-66.16779,Rinconada,Jujuy, ,AR,Argentina,"Rinconada, ,Jujuy,Argentina",No
1572,-49.30554,-67.72743,San Julian,Santa Cruz, ,AR,Argentina,"San Julian, ,Santa Cruz,Argentina",No
1577,-37.54576,-62.76723,Puan,Buenos Aires, ,AR,Argentina,"Puan, ,Buenos Aires,Argentina",No
1596,-32.99835,-60.76791,Perez,Santa Fe, ,AR,Argentina,"Perez, ,Santa Fe,Argentina",No
1601,-32.74733,-63.34232,Pasco,Cordoba, ,AR,Argentina,"Pasco, ,Cordoba,Argentina",No
1613,-32.04158,-63.56978,Oliva,Cordoba, ,AR,Argentina,"Oliva, ,Cordoba,Argentina",No
1618,-26.19907,-64.23792,Nueva Esperanza,Santiago del Estero,Departamento de Pellegrini,AR,Argentina,"Nueva Esperanza,Departamento de Pellegrini,Santiago del Estero,Argentina",No
1626,-32.5948,-62.83455,Morrison,Cordoba, ,AR,Argentina,"Morrison, ,Cordoba,Argentina",No
1633,-25.4395,-66.29126,Molinos,Salta,Departamento de Molinos,AR,Argentina,"Molinos,Departamento de Molinos,Salta,Argentina",No
1634,-30.91859,-62.67814,Miramar,Cordoba, ,AR,Argentina,"Miramar, ,Cordoba,Argentina",No
1636,-31.00326,-66.00098,Milagro,La Rioja, ,AR,Argentina,"Milagro, ,La Rioja,Argentina",No
1669,-28.04845,-65.49945,Los Altos,Catamarca, ,AR,Argentina,"Los Altos, ,Catamarca,Argentina",No
1673,-34.86649,-61.5302,Lincoln,Buenos Aires,Partido de Lincoln,AR,Argentina,"Lincoln,Partido de Lincoln,Buenos Aires,Argentina",No
1683,-31.8026,-62.61655,Las Varas,Cordoba, ,AR,Argentina,"Las Varas, ,Cordoba,Argentina",No
1684,-32.47661,-61.58041,Las Rosas,Santa Fe, ,AR,Argentina,"Las Rosas, ,Santa Fe,Argentina",No
1696,-39.55534,-70.59491,Las Coloradas,Neuquen, ,AR,Argentina,"Las Coloradas, ,Neuquen,Argentina",No
1706,-33.46091,-67.54956,La Paz,Mendoza, ,AR,Argentina,"La Paz, ,Mendoza,Argentina",No
1708,-28.15195,-65.66029,La Merced,Catamarca, ,AR,Argentina,"La Merced, ,Catamarca,Argentina",No
1715,-31.00919,-64.26869,La Granja,Cordoba, ,AR,Argentina,"La Granja, ,Cordoba,Argentina",No
1724,-33.41993,-63.29769,La Carlota,Cordoba, ,AR,Argentina,"La Carlota, ,Cordoba,Argentina",No
1725,-26.12708,-65.0496,La Candelaria,Salta, ,AR,Argentina,"La Candelaria, ,Salta,Argentina",No
1731,-27.73348,-64.24278,La Banda,Santiago del Estero, ,AR,Argentina,"La Banda, ,Santiago del Estero,Argentina",No
1739,-30.98153,-64.09424,Jesus Maria,Cordoba, ,AR,Argentina,"Jesus Maria, ,Cordoba,Argentina",No
1752,-32.81411,-63.03252,Idiazabal,Cordoba, ,AR,Argentina,"Idiazabal, ,Cordoba,Argentina",No
1762,-28.48094,-63.06779,Herrera,Santiago del Estero, ,AR,Argentina,"Herrera, ,Santiago del Estero,Argentina",No
1763,-32.42657,-63.73333,Hernando,Cordoba, ,AR,Argentina,"Hernando, ,Cordoba,Argentina",No
1766,-36.3,-61.71667,Henderson,Buenos Aires, ,AR,Argentina,"Henderson, ,Buenos Aires,Argentina",No
1772,-27.64934,-65.4383,Graneros,Tucuman,Departamento de Graneros,AR,Argentina,"Graneros,Departamento de Graneros,Tucuman,Argentina",No
1822,-31.4488,-60.93173,Esperanza,Santa Fe, ,AR,Argentina,"Esperanza, ,Santa Fe,Argentina",No
1829,-28.21518,-65.8742,El Rodeo,Catamarca, ,AR,Argentina,"El Rodeo, ,Catamarca,Argentina",No
1835,-32.57205,-64.39481,Elena,Cordoba, ,AR,Argentina,"Elena, ,Cordoba,Argentina",No
1838,-24.38682,-65.26177,El Carmen,Jujuy,Departamento de El Carmen,AR,Argentina,"El Carmen,Departamento de El Carmen,Jujuy,Argentina",No
1842,-28.31123,-65.36397,El Alto,Catamarca,Departamento de El Alto,AR,Argentina,"El Alto,Departamento de El Alto,Catamarca,Argentina",No
1853,-39.2,-65.76667,Darwin,Rio Negro, ,AR,Argentina,"Darwin, ,Rio Negro,Argentina",No
1859,-33.00887,-61.80746,Cruz Alta,Cordoba, ,AR,Argentina,"Cruz Alta, ,Cordoba,Argentina",No
1877,-27.34127,-65.59636,Concepcion,Tucuman,Departamento de Chicligasta,AR,Argentina,"Concepcion,Departamento de Chicligasta,Tucuman,Argentina",No
1886,-33.89512,-61.1011,Colon,Buenos Aires,Partido de Colon,AR,Argentina,"Colon,Partido de Colon,Buenos Aires,Argentina",No
1909,-29.881,-61.94504,Ceres,Santa Fe, ,AR,Argentina,"Ceres, ,Santa Fe,Argentina",No
1910,-38.82955,-68.1318,Centenario,Neuquen, ,AR,Argentina,"Centenario, ,Neuquen,Argentina",No
1928,-32.06036,-65.82477,Candelaria,San Luis, ,AR,Argentina,"Candelaria, ,San Luis,Argentina",No
1929,-33.56542,-62.88927,Canals,Cordoba, ,AR,Argentina,"Canals, ,Cordoba,Argentina",No
1933,-26.80077,-60.84215,Campo Largo,Chaco, ,AR,Argentina,"Campo Largo, ,Chaco,Argentina",No
1957,-27.03424,-65.30196,Bella Vista,Tucuman,Departamento de Leales,AR,Argentina,"Bella Vista,Departamento de Leales,Tucuman,Argentina",No
1958,-27.65103,-67.02869,Belen,Catamarca, ,AR,Argentina,"Belen, ,Catamarca,Argentina",No
1959,-36.81667,-69.91667,Barrancas,Neuquen, ,AR,Argentina,"Barrancas, ,Neuquen,Argentina",No
1960,-28.8884,-62.266,Bandera,Santiago del Estero, ,AR,Argentina,"Bandera, ,Santiago del Estero,Argentina",No
1974,-28.5805,-66.79438,Arauco,La Rioja,Departamento de Arauco,AR,Argentina,"Arauco,Departamento de Arauco,La Rioja,Argentina",No
1994,-38.97736,-67.82714,Allen,Rio Negro, ,AR,Argentina,"Allen, ,Rio Negro,Argentina",No
2013,-31.48658,-64.5715,Cuesta Blanca,Cordoba, ,AR,Argentina,"Cuesta Blanca, ,Cordoba,Argentina",No
2087,48.08333,14.83333,Winklarn,Lower Austria,Politischer Bezirk Amstetten,AT,Austria,"Winklarn,Politischer Bezirk Amstetten,Lower Austria,Austria",No
2123,48.28333,15.25,Weiten,Lower Austria,Politischer Bezirk Melk,AT,Austria,"Weiten,Politischer Bezirk Melk,Lower Austria,Austria",No
2133,47.29972,9.65,Weiler,Vorarlberg,Politischer Bezirk Feldkirch,AT,Austria,"Weiler,Politischer Bezirk Feldkirch,Vorarlberg,Austria",No
2146,48.04538,15.02672,Wang,Lower Austria,Politischer Bezirk Scheibbs,AT,Austria,"Wang,Politischer Bezirk Scheibbs,Lower Austria,Austria",No
2230,48.43333,15.1,Traunstein,Lower Austria,Politischer Bezirk Zwettl,AT,Austria,"Traunstein,Politischer Bezirk Zwettl,Lower Austria,Austria",No
2263,47.48333,10.51667,Tannheim,Tyrol,Politischer Bezirk Reutte,AT,Austria,"Tannheim,Politischer Bezirk Reutte,Tyrol,Austria",No
2266,47.51667,9.9,Sulzberg,Vorarlberg,Politischer Bezirk Bregenz,AT,Austria,"Sulzberg,Politischer Bezirk Bregenz,Vorarlberg,Austria",No
2273,47.23333,15.8,Stubenberg,Styria,Politischer Bezirk Hartberg-Fuerstenfeld,AT,Austria,"Stubenberg,Politischer Bezirk Hartberg-Fuerstenfeld,Styria,Austria",No
2283,46.75389,12.48417,Strassen,Tyrol,Politischer Bezirk Lienz,AT,Austria,"Strassen,Politischer Bezirk Lienz,Tyrol,Austria",No
2300,48.36667,16.38333,Stetten,Lower Austria,Politischer Bezirk Korneuburg,AT,Austria,"Stetten,Politischer Bezirk Korneuburg,Lower Austria,Austria",No
2304,46.76556,13.27167,Steinfeld,Carinthia,Politischer Bezirk Spittal an der Drau,AT,Austria,"Steinfeld,Politischer Bezirk Spittal an der Drau,Carinthia,Austria",No
2309,46.99778,16.08694,Stein,Styria,Politischer Bezirk Hartberg-Fuerstenfeld,AT,Austria,"Stein,Politischer Bezirk Hartberg-Fuerstenfeld,Styria,Austria",No
2316,47.36667,11.71667,Stans,Tyrol,Politischer Bezirk Schwaz,AT,Austria,"Stans,Politischer Bezirk Schwaz,Tyrol,Austria",No
2361,48.43333,15.55,Senftenberg,Lower Austria,Politischer Bezirk Krems,AT,Austria,"Senftenberg,Politischer Bezirk Krems,Lower Austria,Austria",No
2385,47.63547,16.35109,Schwarzenbach,Lower Austria,Politischer Bezirk Wiener Neustadt,AT,Austria,"Schwarzenbach,Politischer Bezirk Wiener Neustadt,Lower Austria,Austria",No
2505,47.68333,14.6,Sankt Gallen,Styria,Politischer Bezirk Liezen,AT,Austria,"Sankt Gallen,Politischer Bezirk Liezen,Styria,Austria",No
2518,47.1,14.96667,Salla,Styria,Politischer Bezirk Voitsberg,AT,Austria,"Salla,Politischer Bezirk Voitsberg,Styria,Austria",No
2524,47.80122,16.67158,Rust,Burgenland,Rust Stadt,AT,Austria,"Rust,Rust Stadt,Burgenland,Austria",No
2561,47.98567,15.07067,Reinsberg,Lower Austria,Politischer Bezirk Scheibbs,AT,Austria,"Reinsberg,Politischer Bezirk Scheibbs,Lower Austria,Austria",No
2577,47.43941,11.89407,Rattenberg,Tyrol,Politischer Bezirk Kufstein,AT,Austria,"Rattenberg,Politischer Bezirk Kufstein,Tyrol,Austria",No
2590,48.00313,15.80332,Ramsau,Lower Austria,Politischer Bezirk Lilienfeld,AT,Austria,"Ramsau,Politischer Bezirk Lilienfeld,Lower Austria,Austria",No
2631,47.9582,16.0948,Pottenstein,Lower Austria,Politischer Bezirk Baden,AT,Austria,"Pottenstein,Politischer Bezirk Baden,Lower Austria,Austria",No
2665,48.018,13.47507,Pfaffing,Upper Austria,Politischer Bezirk Vocklabruck,AT,Austria,"Pfaffing,Politischer Bezirk Vocklabruck,Upper Austria,Austria",No
2666,47.3,11.08333,Pfaffenhofen,Tyrol,Politischer Bezirk Innsbruck Land,AT,Austria,"Pfaffenhofen,Politischer Bezirk Innsbruck Land,Tyrol,Austria",No
2690,48.05,17.03333,Pama,Burgenland,Politischer Bezirk Neusiedl am See,AT,Austria,"Pama,Politischer Bezirk Neusiedl am See,Burgenland,Austria",No
2708,48.15,13.83333,Offenhausen,Upper Austria,Wels-Land,AT,Austria,"Offenhausen,Wels-Land,Upper Austria,Austria",No
2766,47.72096,16.08107,Neunkirchen,Lower Austria,Politischer Bezirk Neunkirchen,AT,Austria,"Neunkirchen,Politischer Bezirk Neunkirchen,Lower Austria,Austria",No
2775,46.63333,14.88333,Neuhaus,Carinthia,Politischer Bezirk Volkermarkt,AT,Austria,"Neuhaus,Politischer Bezirk Volkermarkt,Carinthia,Austria",No
2791,47.23333,15.6,Naas,Styria,Politischer Bezirk Weiz,AT,Austria,"Naas,Politischer Bezirk Weiz,Styria,Austria",No
2798,47.42164,11.83356,Munster,Tyrol,Politischer Bezirk Kufstein,AT,Austria,"Munster,Politischer Bezirk Kufstein,Tyrol,Austria",No
2815,46.6575,14.17472,Moosburg,Carinthia,Politischer Bezirk Klagenfurt Land,AT,Austria,"Moosburg,Politischer Bezirk Klagenfurt Land,Carinthia,Austria",No
2845,46.85722,15.90389,Merkendorf,Styria,Politischer Bezirk Suedoststeiermark,AT,Austria,"Merkendorf,Politischer Bezirk Suedoststeiermark,Styria,Austria",No
2848,47.29891,9.57862,Meiningen,Vorarlberg,Politischer Bezirk Feldkirch,AT,Austria,"Meiningen,Politischer Bezirk Feldkirch,Vorarlberg,Austria",No
2886,48.08851,13.66682,Manning,Upper Austria,Politischer Bezirk Vocklabruck,AT,Austria,"Manning,Politischer Bezirk Vocklabruck,Upper Austria,Austria",No
2902,47.91559,16.5179,Loretto,Burgenland,Eisenstadt-Umgebung,AT,Austria,"Loretto,Eisenstadt-Umgebung,Burgenland,Austria",No
2930,48.46667,15.58333,Lengenfeld,Lower Austria,Politischer Bezirk Krems,AT,Austria,"Lengenfeld,Politischer Bezirk Krems,Lower Austria,Austria",No
2980,47.48306,9.93583,Krumbach,Vorarlberg,Politischer Bezirk Bregenz,AT,Austria,"Krumbach,Politischer Bezirk Bregenz,Vorarlberg,Austria",No
3004,46.9,15.78333,Kohlberg,Styria,Politischer Bezirk Suedoststeiermark,AT,Austria,"Kohlberg,Politischer Bezirk Suedoststeiermark,Styria,Austria",No
3066,47.63333,15.61667,Kapellen,Styria,Politischer Bezirk Bruck-Muerzzuschlag,AT,Austria,"Kapellen,Politischer Bezirk Bruck-Muerzzuschlag,Styria,Austria",No
3110,48.66274,15.65663,Horn,Lower Austria,Politischer Bezirk Horn,AT,Austria,"Horn,Politischer Bezirk Horn,Lower Austria,Austria",No
3139,48.73333,15.11667,Hirschbach,Lower Austria,Politischer Bezirk Gmund,AT,Austria,"Hirschbach,Politischer Bezirk Gmund,Lower Austria,Austria",No
3174,47.28333,11.16667,Hatting,Tyrol,Politischer Bezirk Innsbruck Land,AT,Austria,"Hatting,Politischer Bezirk Innsbruck Land,Tyrol,Austria",No
3195,47.25,10.88333,Haiming,Tyrol,Politischer Bezirk Imst,AT,Austria,"Haiming,Politischer Bezirk Imst,Tyrol,Austria",No
3339,47.43333,16.05,Friedberg,Styria,Politischer Bezirk Hartberg-Fuerstenfeld,AT,Austria,"Friedberg,Politischer Bezirk Hartberg-Fuerstenfeld,Styria,Austria",No
3354,47.26356,15.7465,Floing,Styria,Politischer Bezirk Weiz,AT,Austria,"Floing,Politischer Bezirk Weiz,Styria,Austria",No
3362,47.43333,15.65,Fischbach,Styria,Politischer Bezirk Weiz,AT,Austria,"Fischbach,Politischer Bezirk Weiz,Styria,Austria",No
3386,48.71667,16.58333,Falkenstein,Lower Austria,Politischer Bezirk Mistelbach,AT,Austria,"Falkenstein,Politischer Bezirk Mistelbach,Lower Austria,Austria",No
3420,47.38333,15.96667,Eichberg,Styria,Politischer Bezirk Hartberg-Fuerstenfeld,AT,Austria,"Eichberg,Politischer Bezirk Hartberg-Fuerstenfeld,Styria,Austria",No
3427,47.43154,9.89762,Egg,Vorarlberg,Politischer Bezirk Bregenz,AT,Austria,"Egg,Politischer Bezirk Bregenz,Vorarlberg,Austria",No
3438,47.2,15.95,Ebersdorf,Styria,Politischer Bezirk Hartberg-Fuerstenfeld,AT,Austria,"Ebersdorf,Politischer Bezirk Hartberg-Fuerstenfeld,Styria,Austria",No
3452,47.21667,9.71667,Duns,Vorarlberg,Politischer Bezirk Feldkirch,AT,Austria,"Duns,Politischer Bezirk Feldkirch,Vorarlberg,Austria",No
3481,47.14268,16.09643,Burgau,Styria,Politischer Bezirk Hartberg-Fuerstenfeld,AT,Austria,"Burgau,Politischer Bezirk Hartberg-Fuerstenfeld,Styria,Austria",No
3484,47.69648,15.98425,Buchbach,Lower Austria,Politischer Bezirk Neunkirchen,AT,Austria,"Buchbach,Politischer Bezirk Neunkirchen,Lower Austria,Austria",No
3501,47.94452,16.73149,Breitenbrunn,Burgenland,Eisenstadt-Umgebung,AT,Austria,"Breitenbrunn,Eisenstadt-Umgebung,Burgenland,Austria",No
3529,48.01667,14.7,Biberbach,Lower Austria,Politischer Bezirk Amstetten,AT,Austria,"Biberbach,Politischer Bezirk Amstetten,Lower Austria,Austria",No
3536,47.83333,13.03333,Bergheim,Salzburg,Politischer Bezirk Salzburg-Umgebung,AT,Austria,"Bergheim,Politischer Bezirk Salzburg-Umgebung,Salzburg,Austria",No
3537,48.1,17.03333,Berg,Lower Austria,Politischer Bezirk Bruck an der Leitha,AT,Austria,"Berg,Politischer Bezirk Bruck an der Leitha,Lower Austria,Austria",No
3569,47.32176,9.98067,Au,Vorarlberg,Politischer Bezirk Bregenz,AT,Austria,"Au,Politischer Bezirk Bregenz,Vorarlberg,Austria",No
3575,48.21941,14.41784,Asten,Upper Austria,Politischer Bezirk Linz-Land,AT,Austria,"Asten,Politischer Bezirk Linz-Land,Upper Austria,Austria",No
3579,47.25,15.51667,Arzberg,Styria,Politischer Bezirk Weiz,AT,Austria,"Arzberg,Politischer Bezirk Weiz,Styria,Austria",No
3612,47.65,16.01667,Altendorf,Lower Austria,Politischer Bezirk Neunkirchen,AT,Austria,"Altendorf,Politischer Bezirk Neunkirchen,Lower Austria,Austria",No
3613,48.63333,15.58333,Altenburg,Lower Austria,Politischer Bezirk Horn,AT,Austria,"Altenburg,Politischer Bezirk Horn,Lower Austria,Austria",No
3667,47.10083,9.73722,Brand,Vorarlberg,Politischer Bezirk Bludenz,AT,Austria,"Brand,Politischer Bezirk Bludenz,Vorarlberg,Austria",No
3669,46.81417,14.29417,Frauenstein,Carinthia,Politischer Bezirk Sankt Veit an der Glan,AT,Austria,"Frauenstein,Politischer Bezirk Sankt Veit an der Glan,Carinthia,Austria",No
3684,47.07644,15.36052,Thal,Styria,Politischer Bezirk Graz-Umgebung,AT,Austria,"Thal,Politischer Bezirk Graz-Umgebung,Styria,Austria",No
3695,-31.88809,116.7678,York,Western Australia,York,AU,Australia,"York,York,Western Australia,Australia",No
3700,-34.88333,138.55,Woodville,South Australia,Charles Sturt,AU,Australia,"Woodville,Charles Sturt,South Australia,Australia",No
3701,-34.95433,138.87901,Woodside,South Australia,Adelaide Hills,AU,Australia,"Woodside,Adelaide Hills,South Australia,Australia",No
3703,-34.6721,138.89108,Williamstown,South Australia,Barossa,AU,Australia,"Williamstown,Barossa,South Australia,Australia",No
3706,-31.93333,115.8,Wembley,Western Australia,Cambridge,AU,Australia,"Wembley,Cambridge,Western Australia,Australia",No
3715,-34.6663,138.56027,Virginia,South Australia,Playford,AU,Australia,"Virginia,Playford,South Australia,Australia",No
3735,-35.01518,138.73637,Stirling,South Australia,Adelaide Hills,AU,Australia,"Stirling,Adelaide Hills,South Australia,Australia",No
3739,-34.68333,138.68333,Smithfield,South Australia,Playford,AU,Australia,"Smithfield,Playford,South Australia,Australia",No
3742,-35.1898,138.47589,Seaford,South Australia,Onkaparinga,AU,Australia,"Seaford,Onkaparinga,South Australia,Australia",No
3743,-31.89578,115.76431,Scarborough,Western Australia,Stirling,AU,Australia,"Scarborough,Stirling,Western Australia,Australia",No
3744,-34.76667,138.63333,Salisbury,South Australia,Salisbury,AU,Australia,"Salisbury,Salisbury,South Australia,Australia",No
3757,-34.49722,137.48534,Port Victoria,South Australia,Yorke Peninsula,AU,Australia,"Port Victoria,Yorke Peninsula,South Australia,Australia",No
3766,-34.95,138.55,Plympton,South Australia,City of West Torrens,AU,Australia,"Plympton,City of West Torrens,South Australia,Australia",No
3768,-32.97205,138.84073,Peterborough,South Australia,Peterborough,AU,Australia,"Peterborough,Peterborough,South Australia,Australia",No
3770,-34.44311,116.03689,Pemberton,Western Australia,Manjimup,AU,Australia,"Pemberton,Manjimup,Western Australia,Australia",No
3779,-28.34994,114.63821,Northampton,Western Australia,Northampton Shire,AU,Australia,"Northampton,Northampton Shire,Western Australia,Australia",No
3780,-31.64932,116.67423,Northam,Western Australia,Northam,AU,Australia,"Northam,Northam,Western Australia,Australia",No
3801,-34.97892,138.62184,Mitcham,South Australia,Mitcham,AU,Australia,"Mitcham,Mitcham,South Australia,Australia",No
3802,-31.9,116.0,Midland,Western Australia,Swan,AU,Australia,"Midland,Swan,Western Australia,Australia",No
3806,-28.18333,116.73333,Melville,Western Australia,Yalgoo,AU,Australia,"Melville,Yalgoo,Western Australia,Australia",No
3807,-32.23333,115.78333,Medina,Western Australia,Kwinana,AU,Australia,"Medina,Kwinana,Western Australia,Australia",No
3812,-35.01667,138.56667,Marion,South Australia,Marion,AU,Australia,"Marion,Marion,South Australia,Australia",No
3813,-35.04468,138.51236,Marino,South Australia,Marion,AU,Australia,"Marino,Marion,South Australia,Australia",No
3816,-32.01594,115.86714,Manning,Western Australia,South Perth,AU,Australia,"Manning,South Perth,Western Australia,Australia",No
3822,-35.17182,138.83589,Macclesfield,South Australia,Mount Barker,AU,Australia,"Macclesfield,Mount Barker,South Australia,Australia",No
3827,-34.60449,138.59125,Lewiston,South Australia,Mallala,AU,Australia,"Lewiston,Mallala,South Australia,Australia",No
3842,-33.20531,138.60503,Jamestown,South Australia,Northern Areas,AU,Australia,"Jamestown,Northern Areas,South Australia,Australia",No
3845,-35.11667,137.65,Honiton,South Australia,Yorke Peninsula,AU,Australia,"Honiton,Yorke Peninsula,South Australia,Australia",No
3846,-35.01667,138.71667,Heathfield,South Australia,Adelaide Hills,AU,Australia,"Heathfield,Adelaide Hills,South Australia,Australia",No
3847,-33.07988,115.89447,Harvey,Western Australia,Harvey,AU,Australia,"Harvey,Harvey,Western Australia,Australia",No
3848,-35.08333,138.53333,Happy Valley,South Australia,Marion,AU,Australia,"Happy Valley,Marion,South Australia,Australia",No
3853,-31.9,115.96667,Guildford,Western Australia,Swan,AU,Australia,"Guildford,Swan,Western Australia,Australia",No
3868,-33.86013,121.88259,Esperance,Western Australia,Esperance Shire,AU,Australia,"Esperance,Esperance Shire,Western Australia,Australia",No
3870,-34.71944,138.67707,Elizabeth,South Australia,Salisbury,AU,Australia,"Elizabeth,Salisbury,South Australia,Australia",No
3871,-33.5713,115.82446,Donnybrook,Western Australia,Donnybrook-Balingup,AU,Australia,"Donnybrook,Donnybrook-Balingup,Western Australia,Australia",No
3874,-17.30295,123.62864,Derby,Western Australia,Derby-West Kimberley,AU,Australia,"Derby,Derby-West Kimberley,Western Australia,Australia",No
3875,-34.96067,117.35321,Denmark,Western Australia,Denmark,AU,Australia,"Denmark,Denmark,Western Australia,Australia",No
3878,-35.03333,138.56667,Darlington,South Australia,Onkaparinga,AU,Australia,"Darlington,Onkaparinga,South Australia,Australia",No
3879,-31.91906,116.0812,Darlington,Western Australia,Mundaring,AU,Australia,"Darlington,Mundaring,Western Australia,Australia",No
3893,-34.86667,138.51667,Cheltenham,South Australia,Port Adelaide Enfield,AU,Australia,"Cheltenham,Port Adelaide Enfield,South Australia,Australia",No
3900,-35.11977,139.0414,Callington,South Australia,Mount Barker,AU,Australia,"Callington,Mount Barker,South Australia,Australia",No
3906,-35.0182,138.52351,Brighton,South Australia,Adelaide,AU,Australia,"Brighton,Adelaide,South Australia,Australia",No
3907,-35.0,138.75,Bridgewater,South Australia,Adelaide Hills,AU,Australia,"Bridgewater,Adelaide Hills,South Australia,Australia",No
3908,-33.96242,116.13598,Bridgetown,Western Australia,Bridgetown-Greenbushes,AU,Australia,"Bridgetown,Bridgetown-Greenbushes,Western Australia,Australia",No
3911,-30.78204,121.4912,Boulder,Western Australia,Kalgoorlie/Boulder,AU,Australia,"Boulder,Kalgoorlie/Boulder,Western Australia,Australia",No
3912,-35.02139,138.61429,Blackwood,South Australia,Mitcham,AU,Australia,"Blackwood,Mitcham,South Australia,Australia",No
3913,-34.83685,138.49788,Birkenhead,South Australia,Port Adelaide Enfield,AU,Australia,"Birkenhead,Port Adelaide Enfield,South Australia,Australia",No
3915,-32.10839,116.92736,Beverley,Western Australia,Beverley,AU,Australia,"Beverley,Beverley,Western Australia,Australia",No
3916,-32.0,115.91667,Bentley,Western Australia,Canning,AU,Australia,"Bentley,Canning,Western Australia,Australia",No
3917,-31.9,116.01667,Bellevue,Western Australia,Swan,AU,Australia,"Bellevue,Swan,Western Australia,Australia",No
3921,-34.94899,138.66188,Beaumont,South Australia,Burnside,AU,Australia,"Beaumont,Burnside,South Australia,Australia",No
3924,-34.14542,138.41148,Balaklava,South Australia,Wakefield,AU,Australia,"Balaklava,Wakefield,South Australia,Australia",No
3926,-34.31566,115.15922,Augusta,Western Australia,Augusta-Margaret River Shire,AU,Australia,"Augusta,Augusta-Margaret River Shire,Western Australia,Australia",No
3928,-34.42217,137.91907,Ardrossan,South Australia,Yorke Peninsula,AU,Australia,"Ardrossan,Yorke Peninsula,South Australia,Australia",No
3935,-35.0031,117.86595,Albany,Western Australia,Albany,AU,Australia,"Albany,Albany,Western Australia,Australia",No
3938,-33.31664,115.70503,Eaton,Western Australia,Dardanup,AU,Australia,"Eaton,Dardanup,Western Australia,Australia",No
3939,-35.03474,138.52288,Seacliff,South Australia,Adelaide Hills,AU,Australia,"Seacliff,Adelaide Hills,South Australia,Australia",No
3940,-34.98989,138.60158,Clapham,South Australia,Mitcham,AU,Australia,"Clapham,Mitcham,South Australia,Australia",No
3945,-31.97961,115.7823,Claremont,Western Australia,Claremont,AU,Australia,"Claremont,Claremont,Western Australia,Australia",No
3949,-31.99517,115.7998,Dalkeith,Western Australia,Nedlands,AU,Australia,"Dalkeith,Nedlands,Western Australia,Australia",No
3962,-34.3135,148.30107,Young,New South Wales,Young,AU,Australia,"Young,Young,New South Wales,Australia",No
3980,-27.63333,153.1,Woodridge,Queensland,Logan,AU,Australia,"Woodridge,Logan,Queensland,Australia",No
3984,-37.85344,144.99241,Windsor,Victoria, ,AU,Australia,"Windsor, ,Victoria,Australia",No
3986,-37.857,144.89769,Williamstown,Victoria,Hobsons Bay,AU,Australia,"Williamstown,Hobsons Bay,Victoria,Australia",No
3987,-37.51152,145.11836,Whittlesea,Victoria,Whittlesea,AU,Australia,"Whittlesea,Whittlesea,Victoria,Australia",No
3990,-41.52914,146.83914,Westbury,Tasmania,Meander Valley,AU,Australia,"Westbury,Meander Valley,Tasmania,Australia",No
3991,-27.61667,151.86667,Westbrook,Queensland,Toowoomba,AU,Australia,"Westbrook,Toowoomba,Queensland,Australia",No
3994,-32.55588,148.94508,Wellington,New South Wales,Wellington,AU,Australia,"Wellington,Wellington,New South Wales,Australia",No
3998,-28.21901,152.03438,Warwick,Queensland,Southern Downs,AU,Australia,"Warwick,Southern Downs,Queensland,Australia",No
4024,-37.9,145.33333,Tremont,Victoria,Yarra Ranges,AU,Australia,"Tremont,Yarra Ranges,Victoria,Australia",No
4027,-25.28496,152.87886,Torquay,Queensland,Fraser Coast,AU,Australia,"Torquay,Fraser Coast,Queensland,Australia",No
4032,-17.23333,145.48333,Tolga,Queensland,Tablelands,AU,Australia,"Tolga,Tablelands,Queensland,Australia",No
4047,-31.09048,150.92905,Tamworth,New South Wales,Tamworth Municipality,AU,Australia,"Tamworth,Tamworth Municipality,New South Wales,Australia",No
4062,-27.46141,153.02311,Spring Hill,Queensland,Brisbane,AU,Australia,"Spring Hill,Brisbane,Queensland,Australia",No
4063,-37.82975,144.88516,Spotswood,Victoria, ,AU,Australia,"Spotswood, ,Victoria,Australia",No
4065,-27.96724,153.39796,Southport,Queensland,Gold Coast,AU,Australia,"Southport,Gold Coast,Queensland,Australia",No
4068,-38.33958,144.74126,Sorrento,Victoria,Mornington Peninsula,AU,Australia,"Sorrento,Mornington Peninsula,Victoria,Australia",No
4070,-38.21667,145.16667,Somerville,Victoria,Mornington Peninsula,AU,Australia,"Somerville,Mornington Peninsula,Victoria,Australia",No
4071,-38.4,145.16667,Somers,Victoria, ,AU,Australia,"Somers, ,Victoria,Australia",No
4078,-41.39947,146.33897,Sheffield,Tasmania,Kentish,AU,Australia,"Sheffield,Kentish,Tasmania,Australia",No
4079,-24.87593,152.26994,Sharon,Queensland,Bundaberg,AU,Australia,"Sharon,Bundaberg,Queensland,Australia",No
4080,-37.91667,145.38333,Selby,Victoria,Yarra Ranges,AU,Australia,"Selby,Yarra Ranges,Victoria,Australia",No
4082,-38.1,145.13333,Seaford,Victoria,Frankston,AU,Australia,"Seaford,Frankston,Victoria,Australia",No
4083,-41.1578,147.51727,Scottsdale,Tasmania,Dorset,AU,Australia,"Scottsdale,Dorset,Tasmania,Australia",No
4089,-42.93333,147.5,Sandford,Tasmania,Clarence,AU,Australia,"Sandford,Clarence,Tasmania,Australia",No
4090,-38.11095,147.06802,Sale,Victoria,Wellington,AU,Australia,"Sale,Wellington,Victoria,Australia",No
4092,-41.32028,148.23889,St Helens,Tasmania,Break O'Day,AU,Australia,"St Helens,Break O'Day,Tasmania,Australia",No
4093,-37.7,145.13333,Saint Helena,Victoria, ,AU,Australia,"Saint Helena, ,Victoria,Australia",No
4094,-37.60151,145.27235,Saint Andrews,Victoria,Nillumbik,AU,Australia,"Saint Andrews,Nillumbik,Victoria,Australia",No
4096,-38.36667,144.81667,Rye,Victoria, ,AU,Australia,"Rye, ,Victoria,Australia",No
4097,-32.71667,151.53333,Rutherford,New South Wales,Maitland Municipality,AU,Australia,"Rutherford,Maitland Municipality,New South Wales,Australia",No
4102,-26.56741,148.78751,Roma,Queensland,Maranoa,AU,Australia,"Roma,Maranoa,Queensland,Australia",No
4107,-27.6,152.85,Riverview,Queensland,Ipswich,AU,Australia,"Riverview,Ipswich,Queensland,Australia",No
4111,-37.81819,145.00176,Richmond,Victoria,Yarra,AU,Australia,"Richmond,Yarra,Victoria,Australia",No
4112,-33.59956,150.75142,Richmond,New South Wales,Hawkesbury,AU,Australia,"Richmond,Hawkesbury,New South Wales,Australia",No
4122,-20.31667,148.5,Red Hill,Queensland,Whitsunday,AU,Australia,"Red Hill,Whitsunday,Queensland,Australia",No
4128,-33.03773,151.58443,Rathmines,New South Wales,Lake Macquarie Shire,AU,Australia,"Rathmines,Lake Macquarie Shire,New South Wales,Australia",No
4130,-42.0805,145.55646,Queenstown,Tasmania,West Coast,AU,Australia,"Queenstown,West Coast,Tasmania,Australia",No
4136,-37.75,145.01667,Preston,Victoria,Darebin,AU,Australia,"Preston,Darebin,Victoria,Australia",No
4140,-38.3462,141.60257,Portland,Victoria,Glenelg,AU,Australia,"Portland,Glenelg,Victoria,Australia",No
4141,-33.35709,149.98148,Portland,New South Wales,Lithgow,AU,Australia,"Portland,Lithgow,New South Wales,Australia",No
4149,-34.16995,150.61168,Picton,New South Wales,Wollondilly,AU,Australia,"Picton,Wollondilly,New South Wales,Australia",No
4154,-33.75,150.7,Penrith,New South Wales,Penrith Municipality,AU,Australia,"Penrith,Penrith Municipality,New South Wales,Australia",No
4160,-37.78333,144.95,Parkville,Victoria, ,AU,Australia,"Parkville, ,Victoria,Australia",No
4169,-33.28397,149.10018,Orange,New South Wales,Orange Municipality,AU,Australia,"Orange,Orange Municipality,New South Wales,Australia",No
4171,-37.85,145.36667,Olinda,Victoria,Yarra Ranges,AU,Australia,"Olinda,Yarra Ranges,Victoria,Australia",No
4178,-34.0793,150.5132,Oakdale,New South Wales,Wollondilly,AU,Australia,"Oakdale,Wollondilly,New South Wales,Australia",No
4188,-31.6368,152.81357,North Haven,New South Wales,Port Macquarie-Hastings,AU,Australia,"North Haven,Port Macquarie-Hastings,New South Wales,Australia",No
4198,-37.84427,144.88483,Newport,Victoria,Hobsons Bay,AU,Australia,"Newport,Hobsons Bay,Victoria,Australia",No
4199,-33.65517,151.32126,Newport,New South Wales,Pittwater,AU,Australia,"Newport,Pittwater,New South Wales,Australia",No
4202,-37.55846,143.82485,Newington,Victoria,Ballarat North,AU,Australia,"Newington,Ballarat North,Victoria,Australia",No
4203,-32.92715,151.77647,Newcastle,New South Wales,Newcastle,AU,Australia,"Newcastle,Newcastle,New South Wales,Australia",No
4231,-37.58333,143.86667,Mount Pleasant,Victoria, ,AU,Australia,"Mount Pleasant, ,Victoria,Australia",No
4256,-37.81667,145.35,Montrose,Victoria,Yarra Ranges,AU,Australia,"Montrose,Yarra Ranges,Victoria,Australia",No
4257,-37.71667,145.11667,Montmorency,Victoria,Banyule,AU,Australia,"Montmorency,Banyule,Victoria,Australia",No
4266,-37.81667,145.2,Mitcham,Victoria, ,AU,Australia,"Mitcham, ,Victoria,Australia",No
4267,-34.03857,151.10005,Miranda,New South Wales,Sutherland Shire,AU,Australia,"Miranda,Sutherland Shire,New South Wales,Australia",No
4268,-35.31644,150.4361,Milton,New South Wales,Shoalhaven Shire,AU,Australia,"Milton,Shoalhaven Shire,New South Wales,Australia",No
4293,-43.02814,147.26256,Margate,Tasmania,Kingborough,AU,Australia,"Margate,Kingborough,Tasmania,Australia",No
4294,-27.24761,153.09809,Margate,Queensland,Moreton Bay,AU,Australia,"Margate,Moreton Bay,Queensland,Australia",No
4296,-37.052,146.08846,Mansfield,Victoria,Mansfield,AU,Australia,"Mansfield,Mansfield,Victoria,Australia",No
4305,-37.88333,145.48333,Macclesfield,Victoria,Yarra Ranges,AU,Australia,"Macclesfield,Yarra Ranges,Victoria,Australia",No
4313,-41.60512,147.11887,Longford,Tasmania,Northern Midlands,AU,Australia,"Longford,Northern Midlands,Tasmania,Australia",No
4314,-33.9,150.93333,Liverpool,New South Wales,Fairfield,AU,Australia,"Liverpool,Fairfield,New South Wales,Australia",No
4315,-37.96667,144.5,Little River,Victoria,Wyndham,AU,Australia,"Little River,Wyndham,Victoria,Australia",No
4333,-42.91364,147.48747,Lauderdale,Tasmania,Clarence,AU,Australia,"Lauderdale,Clarence,Tasmania,Australia",No
4334,-41.24641,146.42458,Latrobe,Tasmania,Latrobe,AU,Australia,"Latrobe,Latrobe,Tasmania,Australia",No
4336,-32.7,151.6,Largs,New South Wales,Maitland Municipality,AU,Australia,"Largs,Maitland Municipality,New South Wales,Australia",No
4357,-42.97638,147.30351,Kingston,Tasmania,Kingborough,AU,Australia,"Kingston,Kingborough,Tasmania,Australia",No
4358,-34.23333,140.35,Kingston,South Australia,Loxton Waikerie,AU,Australia,"Kingston,Loxton Waikerie,South Australia,Australia",No
4366,-43.12623,147.24641,Kettering,Tasmania,Kingborough,AU,Australia,"Kettering,Kingborough,Tasmania,Australia",No
4368,-33.92019,151.22241,Kensington,New South Wales,Randwick,AU,Australia,"Kensington,Randwick,New South Wales,Australia",No
4369,-37.78333,144.93333,Kensington,Victoria, ,AU,Australia,"Kensington, ,Victoria,Australia",No
4371,-31.63295,152.70393,Kendall,New South Wales,Port Macquarie-Hastings,AU,Australia,"Kendall,Port Macquarie-Hastings,New South Wales,Australia",No
4373,-33.41667,149.6,Kelso,New South Wales,Bathurst Regional,AU,Australia,"Kelso,Bathurst Regional,New South Wales,Australia",No
4374,-36.0991,140.35315,Keith,South Australia,Tatiara,AU,Australia,"Keith,Tatiara,South Australia,Australia",No
4403,-36.71131,142.19981,Horsham,Victoria,Horsham,AU,Australia,"Horsham,Horsham,Victoria,Australia",No
4408,-33.4,151.41667,Holgate,New South Wales,Gosford Shire,AU,Australia,"Holgate,Gosford Shire,New South Wales,Australia",No
4409,-35.72189,147.31387,Holbrook,New South Wales,Greater Hume Shire,AU,Australia,"Holbrook,Greater Hume Shire,New South Wales,Australia",No
4414,-34.17836,150.99522,Helensburgh,New South Wales,Wollongong,AU,Australia,"Helensburgh,Wollongong,New South Wales,Australia",No
4416,-37.75,145.06667,Heidelberg,Victoria,Banyule,AU,Australia,"Heidelberg,Banyule,Victoria,Australia",No
4427,-38.3,145.18333,Hastings,Victoria,Mornington Peninsula,AU,Australia,"Hastings,Mornington Peninsula,Victoria,Australia",No
4428,-31.87227,152.69174,Harrington,New South Wales,Greater Taree,AU,Australia,"Harrington,Greater Taree,New South Wales,Australia",No
4430,-37.95,145.0,Hampton,Victoria, ,AU,Australia,"Hampton, ,Victoria,Australia",No
4431,-37.74425,142.02202,Hamilton,Victoria,Southern Grampians,AU,Australia,"Hamilton,Southern Grampians,Victoria,Australia",No
4448,-29.69012,152.93337,Grafton,New South Wales,Clarence Valley,AU,Australia,"Grafton,Clarence Valley,New South Wales,Australia",No
4458,-32.0077,151.9633,Gloucester,New South Wales,Gloucester Shire,AU,Australia,"Gloucester,Gloucester Shire,New South Wales,Australia",No
4465,-33.96667,150.9,Glenfield,New South Wales,Campbelltown Municipality,AU,Australia,"Glenfield,Campbelltown Municipality,New South Wales,Australia",No
4472,-41.10559,146.82606,George Town,Tasmania,George Town,AU,Australia,"George Town,George Town,Tasmania,Australia",No
4479,-38.08985,145.67502,Garfield,Victoria,Cardinia,AU,Australia,"Garfield,Cardinia,Victoria,Australia",No
4480,-33.65297,151.04713,Galston,New South Wales,Hornsby Shire,AU,Australia,"Galston,Hornsby Shire,New South Wales,Australia",No
4484,-43.08884,147.00906,Franklin,Tasmania,Huon Valley,AU,Australia,"Franklin,Huon Valley,Tasmania,Australia",No
4486,-35.1481,147.46707,Forest Hill,New South Wales,Wagga Wagga,AU,Australia,"Forest Hill,Wagga Wagga,New South Wales,Australia",No
4487,-37.83333,145.18333,Forest Hill,Victoria, ,AU,Australia,"Forest Hill, ,Victoria,Australia",No
4491,-35.64904,145.57704,Finley,New South Wales,Berrigan,AU,Australia,"Finley,Berrigan,New South Wales,Australia",No
4493,-28.6485,153.4512,Federal,New South Wales,Byron Shire,AU,Australia,"Federal,Byron Shire,New South Wales,Australia",No
4503,-36.71667,144.31667,Epsom,Victoria,Greater Bendigo,AU,Australia,"Epsom,Greater Bendigo,Victoria,Australia",No
4512,-37.73333,145.15,Eltham,Victoria,Nillumbik,AU,Australia,"Eltham,Nillumbik,Victoria,Australia",No
4513,-34.05,150.7,Elderslie,New South Wales,Camden,AU,Australia,"Elderslie,Camden,New South Wales,Australia",No
4514,-33.37731,149.54654,Eglinton,New South Wales,Bathurst Regional,AU,Australia,"Eglinton,Bathurst Regional,New South Wales,Australia",No
4517,-37.06322,149.90401,Eden,New South Wales,Bega Valley,AU,Australia,"Eden,Bega Valley,New South Wales,Australia",No
4520,-33.96667,150.98333,East Hills,New South Wales,Liverpool,AU,Australia,"East Hills,Liverpool,New South Wales,Australia",No
4535,-37.78828,145.12373,Doncaster,Victoria,Manningham,AU,Australia,"Doncaster,Manningham,Victoria,Australia",No
4544,-37.76667,144.78333,Deer Park,Victoria,Brimbank,AU,Australia,"Deer Park,Brimbank,Victoria,Australia",No
4548,-33.74297,151.2008,Davidson,New South Wales,Warringah,AU,Australia,"Davidson,Warringah,New South Wales,Australia",No
4559,-39.92976,143.85385,Currie,Tasmania,King Island,AU,Australia,"Currie,King Island,Tasmania,Australia",No
4563,-33.88333,151.11667,Croydon,New South Wales,Ashfield,AU,Australia,"Croydon,Ashfield,New South Wales,Australia",No
4574,-38.45231,145.23865,Cowes,Victoria,Bass Coast,AU,Australia,"Cowes,Bass Coast,Victoria,Australia",No
4590,-33.84722,151.10381,Concord,New South Wales,Canada Bay,AU,Australia,"Concord,Canada Bay,New South Wales,Australia",No
4591,-33.99941,151.06389,Como,New South Wales,Sutherland Shire,AU,Australia,"Como,Sutherland Shire,New South Wales,Australia",No
4593,-37.8,144.98333,Collingwood,Victoria,Yarra,AU,Australia,"Collingwood,Yarra,Victoria,Australia",No
4597,-37.75,144.96667,Coburg,Victoria,Moreland,AU,Australia,"Coburg,Moreland,Victoria,Australia",No
4603,-27.52677,153.26516,Cleveland,Queensland,Redland,AU,Australia,"Cleveland,Redland,Queensland,Australia",No
4608,-42.78333,147.25,Claremont,Tasmania,Glenorchy,AU,Australia,"Claremont,Glenorchy,Tasmania,Australia",No
4617,-38.05,145.11667,Chelsea,Victoria,Kingston,AU,Australia,"Chelsea,Kingston,Victoria,Australia",No
4636,-32.95,151.66667,Cardiff,New South Wales,Lake Macquarie Shire,AU,Australia,"Cardiff,Lake Macquarie Shire,New South Wales,Australia",No
4643,-42.83333,147.45,Cambridge,Tasmania,Clarence,AU,Australia,"Cambridge,Clarence,Tasmania,Australia",No
4649,-34.26017,150.53288,Buxton,New South Wales,Wollondilly,AU,Australia,"Buxton,Wollondilly,New South Wales,Australia",No
4667,-37.76667,144.96667,Brunswick,Victoria,Moreland,AU,Australia,"Brunswick,Moreland,Victoria,Australia",No
4674,-27.29582,153.05721,Brighton,Queensland,Brisbane,AU,Australia,"Brighton,Brisbane,Queensland,Australia",No
4675,-41.00046,147.39175,Bridport,Tasmania,Dorset,AU,Australia,"Bridport,Dorset,Tasmania,Australia",No
4676,-42.73719,147.22784,Bridgewater,Tasmania,Brighton,AU,Australia,"Bridgewater,Brighton,Tasmania,Australia",No
4680,-35.44148,149.7998,Braidwood,New South Wales,Palerang,AU,Australia,"Braidwood,Palerang,New South Wales,Australia",No
4704,-33.5019,151.32365,Blackwall,New South Wales,Gosford Shire,AU,Australia,"Blackwall,Gosford Shire,New South Wales,Australia",No
4708,-33.63567,150.28318,Blackheath,New South Wales,Blue Mountains Municipality,AU,Australia,"Blackheath,Blue Mountains Municipality,New South Wales,Australia",No
4712,-33.95,151.11667,Bexley,New South Wales,Rockdale,AU,Australia,"Bexley,Rockdale,New South Wales,Australia",No
4722,-34.48333,150.85,Berkeley,New South Wales,Wollongong,AU,Australia,"Berkeley,Wollongong,New South Wales,Australia",No
4728,-33.0274,151.6601,Belmont,New South Wales,Lake Macquarie Shire,AU,Australia,"Belmont,Lake Macquarie Shire,New South Wales,Australia",No
4729,-27.5,153.11667,Belmont,Queensland,Brisbane,AU,Australia,"Belmont,Brisbane,Queensland,Australia",No
4741,-41.20227,146.81723,Beaconsfield,Tasmania,West Tamar,AU,Australia,"Beaconsfield,West Tamar,Tasmania,Australia",No
4743,-37.85,145.26667,Bayswater,Victoria,Knox,AU,Australia,"Bayswater,Knox,Victoria,Australia",No
4744,-38.2,145.15,Baxter,Victoria,Mornington Peninsula,AU,Australia,"Baxter,Mornington Peninsula,Victoria,Australia",No
4754,-28.86414,153.56541,Ballina,New South Wales,Ballina,AU,Australia,"Ballina,Ballina,New South Wales,Australia",No
4762,-19.57393,147.40666,Ayr,Queensland,Burdekin,AU,Australia,"Ayr,Burdekin,Queensland,Australia",No
4765,-33.85,151.03333,Auburn,New South Wales,Auburn,AU,Australia,"Auburn,Auburn,New South Wales,Australia",No
4766,-17.26864,145.47522,Atherton,Queensland,Tablelands,AU,Australia,"Atherton,Tablelands,Queensland,Australia",No
4770,-37.86667,145.08333,Ashburton,Victoria, ,AU,Australia,"Ashburton, ,Victoria,Australia",No
4774,-33.61667,151.03333,Arcadia,New South Wales,Hornsby Shire,AU,Australia,"Arcadia,Hornsby Shire,New South Wales,Australia",No
4775,-37.28542,142.92728,Ararat,Victoria,Ararat,AU,Australia,"Ararat,Ararat,Victoria,Australia",No
4779,-37.86964,144.83036,Altona,Victoria,Hobsons Bay,AU,Australia,"Altona,Hobsons Bay,Victoria,Australia",No
4782,-33.91667,151.2,Alexandria,New South Wales, ,AU,Australia,"Alexandria, ,New South Wales,Australia",No
4785,-37.76667,144.83333,Albion,Victoria,Brimbank,AU,Australia,"Albion,Brimbank,Victoria,Australia",No
4787,-37.8,145.0,Abbotsford,Victoria, ,AU,Australia,"Abbotsford, ,Victoria,Australia",No
4792,-41.3876,147.13052,Mayfield,Tasmania,Launceston,AU,Australia,"Mayfield,Launceston,Tasmania,Australia",No
4796,-34.04467,151.04646,Loftus,New South Wales,Sutherland Shire,AU,Australia,"Loftus,Sutherland Shire,New South Wales,Australia",No
4802,-34.00407,151.07588,Oyster Bay,New South Wales,Sutherland Shire,AU,Australia,"Oyster Bay,Sutherland Shire,New South Wales,Australia",No
4805,-33.9725,151.1481,Monterey,New South Wales,Rockdale,AU,Australia,"Monterey,Rockdale,New South Wales,Australia",No
4806,-33.9822,151.14,Ramsgate,New South Wales,Rockdale,AU,Australia,"Ramsgate,Rockdale,New South Wales,Australia",No
4826,-27.20118,153.10939,Scarborough,Queensland,Moreton Bay,AU,Australia,"Scarborough,Moreton Bay,Queensland,Australia",No
4832,-37.96944,145.04806,Cheltenham,Victoria,Bayside,AU,Australia,"Cheltenham,Bayside,Victoria,Australia",No
4838,-33.83954,151.183,Greenwich,New South Wales,Lane Cove,AU,Australia,"Greenwich,Lane Cove,New South Wales,Australia",No
4851,-33.90198,151.26556,Bronte,New South Wales,Waverley,AU,Australia,"Bronte,Waverley,New South Wales,Australia",No
4854,-33.76667,151.20833,Forestville,New South Wales,Warringah,AU,Australia,"Forestville,Warringah,New South Wales,Australia",No
4859,-38.36131,144.77955,Blairgowrie,Victoria,Mornington Peninsula,AU,Australia,"Blairgowrie,Mornington Peninsula,Victoria,Australia",No
4870,-34.8526,138.60255,Enfield,South Australia,Port Adelaide Enfield,AU,Australia,"Enfield,Port Adelaide Enfield,South Australia,Australia",No
4874,-37.78035,144.87353,Maidstone,Victoria,Maribyrnong,AU,Australia,"Maidstone,Maribyrnong,Victoria,Australia",No
4885,-31.99119,115.86336,Como,Western Australia,South Perth,AU,Australia,"Como,South Perth,Western Australia,Australia",No
4902,-34.87361,138.66896,Paradise,South Australia,Campbelltown,AU,Australia,"Paradise,Campbelltown,South Australia,Australia",No
4911,-27.47039,153.00312,Milton,Queensland,Brisbane,AU,Australia,"Milton,Brisbane,Queensland,Australia",No
4914,-27.43631,153.02882,Windsor,Queensland,Brisbane,AU,Australia,"Windsor,Brisbane,Queensland,Australia",No
4918,-33.91192,151.11862,Canterbury,New South Wales,Canterbury,AU,Australia,"Canterbury,Canterbury,New South Wales,Australia",No
4923,-31.40237,152.90185,North Shore,New South Wales,Port Macquarie-Hastings,AU,Australia,"North Shore,Port Macquarie-Hastings,New South Wales,Australia",No
4925,-31.88343,115.8099,Stirling,Western Australia,Stirling,AU,Australia,"Stirling,Stirling,Western Australia,Australia",No
4929,-37.81014,144.95,West Melbourne,Victoria,Melbourne,AU,Australia,"West Melbourne,Melbourne,Victoria,Australia",No
4942,-32.55717,115.70657,Erskine,Western Australia,Mandurah,AU,Australia,"Erskine,Mandurah,Western Australia,Australia",No
4955,-37.7008,144.56025,Brookfield,Victoria,Melton,AU,Australia,"Brookfield,Melton,Victoria,Australia",No
4957,-37.86259,145.07936,Ashburton,Victoria,Boroondara,AU,Australia,"Ashburton,Boroondara,Victoria,Australia",No
4961,-37.8548,144.99267,Windsor,Victoria,Stonnington,AU,Australia,"Windsor,Stonnington,Victoria,Australia",No
4968,-37.81901,145.15326,Blackburn,Victoria,Whitehorse,AU,Australia,"Blackburn,Whitehorse,Victoria,Australia",No
4969,-37.8247,145.08476,Canterbury,Victoria,Boroondara,AU,Australia,"Canterbury,Boroondara,Victoria,Australia",No
4977,-37.83656,145.16519,Forest Hill,Victoria,Whitehorse,AU,Australia,"Forest Hill,Whitehorse,Victoria,Australia",No
4987,-37.93723,145.0046,Hampton,Victoria,Bayside,AU,Australia,"Hampton,Bayside,Victoria,Australia",No
5008,-37.74496,144.80049,St Albans,Victoria,Brimbank,AU,Australia,"St Albans,Brimbank,Victoria,Australia",No
5020,-31.9435,115.9255,Belmont,Western Australia,Belmont,AU,Australia,"Belmont,Belmont,Western Australia,Australia",No
5027,-33.90219,151.20037,Alexandria,New South Wales,City of Sydney,AU,Australia,"Alexandria,City of Sydney,New South Wales,Australia",No
5042,-38.05588,145.25615,Lynbrook,Victoria,Casey,AU,Australia,"Lynbrook,Casey,Victoria,Australia",No
5058,-31.6615,115.72261,Ridgewood,Western Australia,Wanneroo,AU,Australia,"Ridgewood,Wanneroo,Western Australia,Australia",No
5060,-32.02058,115.91181,Wilson,Western Australia,Canning,AU,Australia,"Wilson,Canning,Western Australia,Australia",No
5061,-31.64298,115.70431,Butler,Western Australia,Wanneroo,AU,Australia,"Butler,Wanneroo,Western Australia,Australia",No
5072,-32.16696,116.00193,Brookdale,Western Australia,Armadale,AU,Australia,"Brookdale,Armadale,Western Australia,Australia",No
5076,-32.04092,115.94157,Langford,Western Australia,Gosnells,AU,Australia,"Langford,Gosnells,Western Australia,Australia",No
5082,-32.04502,115.78589,Palmyra,Western Australia,Melville,AU,Australia,"Palmyra,Melville,Western Australia,Australia",No
5086,-37.82995,144.88784,Spotswood,Victoria,Hobsons Bay,AU,Australia,"Spotswood,Hobsons Bay,Victoria,Australia",No
5103,-31.86744,115.83919,Westminster,Western Australia,Stirling,AU,Australia,"Westminster,Stirling,Western Australia,Australia",No
5114,-32.06996,115.7977,Samson,Western Australia,Fremantle,AU,Australia,"Samson,Fremantle,Western Australia,Australia",No
5120,-32.05216,115.82972,Winthrop,Western Australia,Melville,AU,Australia,"Winthrop,Melville,Western Australia,Australia",No
5123,-37.81609,144.8415,Brooklyn,Victoria,Brimbank,AU,Australia,"Brooklyn,Brimbank,Victoria,Australia",No
5124,-37.69047,144.74172,Hillside,Victoria,Melton,AU,Australia,"Hillside,Melton,Victoria,Australia",No
5153,-27.43154,153.058,Ascot,Queensland,Brisbane,AU,Australia,"Ascot,Brisbane,Queensland,Australia",No
5154,-27.56583,153.05738,Robertson,Queensland,Brisbane,AU,Australia,"Robertson,Brisbane,Queensland,Australia",No
5159,-27.41044,153.01105,Stafford,Queensland,Brisbane,AU,Australia,"Stafford,Brisbane,Queensland,Australia",No
5162,-27.55584,153.14701,Burbank,Queensland,Brisbane,AU,Australia,"Burbank,Brisbane,Queensland,Australia",No
5166,-27.54351,153.12057,Mackenzie,Queensland,Brisbane,AU,Australia,"Mackenzie,Brisbane,Queensland,Australia",No
5167,-27.53929,153.09895,Mansfield,Queensland,Brisbane,AU,Australia,"Mansfield,Brisbane,Queensland,Australia",No
5169,-27.59616,152.95321,Richlands,Queensland,Brisbane,AU,Australia,"Richlands,Brisbane,Queensland,Australia",No
5177,-27.51398,153.14907,Chandler,Queensland,Brisbane,AU,Australia,"Chandler,Brisbane,Queensland,Australia",No
5179,-27.46729,153.0732,Morningside,Queensland,Brisbane,AU,Australia,"Morningside,Brisbane,Queensland,Australia",No
5187,-27.65365,152.91716,Springfield,Queensland,Ipswich,AU,Australia,"Springfield,Ipswich,Queensland,Australia",No
5188,-27.59278,152.76798,Tivoli,Queensland,Ipswich,AU,Australia,"Tivoli,Ipswich,Queensland,Australia",No
5199,-37.77977,145.01764,Fairfield,Victoria,Darebin,AU,Australia,"Fairfield,Darebin,Victoria,Australia",No
5209,-37.71842,144.91945,Oak Park,Victoria,Moreland,AU,Australia,"Oak Park,Moreland,Victoria,Australia",No
5227,-38.081,145.20767,Sandhurst,Victoria,Frankston,AU,Australia,"Sandhurst,Frankston,Victoria,Australia",No
5237,-37.80819,144.87911,Kingsville,Victoria,Maribyrnong,AU,Australia,"Kingsville,Maribyrnong,Victoria,Australia",No
5260,-33.64594,151.28466,Church Point,New South Wales,Pittwater,AU,Australia,"Church Point,Pittwater,New South Wales,Australia",No
5267,-33.89103,151.19548,Darlington,New South Wales,City of Sydney,AU,Australia,"Darlington,City of Sydney,New South Wales,Australia",No
5277,-33.86445,150.93884,Fairfield Heights,New South Wales,Fairfield,AU,Australia,"Fairfield Heights,Fairfield,New South Wales,Australia",No
5286,-33.68462,151.26354,Ingleside,New South Wales,Pittwater,AU,Australia,"Ingleside,Pittwater,New South Wales,Australia",No
5311,-33.61808,150.80443,South Windsor,New South Wales,Hawkesbury,AU,Australia,"South Windsor,Hawkesbury,New South Wales,Australia",No
5322,-12.51895,131.02844,Virginia,Northern Territory,Litchfield,AU,Australia,"Virginia,Litchfield,Northern Territory,Australia",No
5348,-34.89569,138.6378,Marden,South Australia,Norwood Payneham St Peters,AU,Australia,"Marden,Norwood Payneham St Peters,South Australia,Australia",No
5353,-34.85925,138.52138,Alberton,South Australia,Port Adelaide Enfield,AU,Australia,"Alberton,Port Adelaide Enfield,South Australia,Australia",No
5354,-34.94946,138.57845,Forestville,South Australia,Unley,AU,Australia,"Forestville,Unley,South Australia,Australia",No
5357,-35.27767,149.11829,Acton,Australian Capital Territory, ,AU,Australia,"Acton, ,Australian Capital Territory,Australia",No
5359,-31.91132,115.8892,Bedford,Western Australia,Bayswater,AU,Australia,"Bedford,Bayswater,Western Australia,Australia",No
5362,-31.98418,115.81603,Crawley,Western Australia,Subiaco,AU,Australia,"Crawley,Subiaco,Western Australia,Australia",No
5367,-32.03494,115.92233,Ferndale,Western Australia,Canning,AU,Australia,"Ferndale,Canning,Western Australia,Australia",No
5370,-32.06208,115.78049,Hilton,Western Australia,Fremantle,AU,Australia,"Hilton,Fremantle,Western Australia,Australia",No
5374,-32.03974,115.84993,Mount Pleasant,Western Australia,Melville,AU,Australia,"Mount Pleasant,Melville,Western Australia,Australia",No
5385,-31.88695,115.99196,Woodbridge,Western Australia,Swan,AU,Australia,"Woodbridge,Swan,Western Australia,Australia",No
5407,-32.91501,151.76436,Carrington,New South Wales,Newcastle,AU,Australia,"Carrington,Newcastle,New South Wales,Australia",No
5410,-32.92207,151.74711,Hamilton,New South Wales,Newcastle,AU,Australia,"Hamilton,Newcastle,New South Wales,Australia",No
5412,-32.89793,151.73613,Mayfield,New South Wales,Newcastle,AU,Australia,"Mayfield,Newcastle,New South Wales,Australia",No
5428,-32.98208,151.69188,Gateshead,New South Wales,Lake Macquarie Shire,AU,Australia,"Gateshead,Lake Macquarie Shire,New South Wales,Australia",No
5429,-32.93194,151.64103,Glendale,New South Wales,Lake Macquarie Shire,AU,Australia,"Glendale,Lake Macquarie Shire,New South Wales,Australia",No
5435,-33.01357,151.59373,Toronto,New South Wales,Lake Macquarie Shire,AU,Australia,"Toronto,Lake Macquarie Shire,New South Wales,Australia",No
5438,-26.39886,152.87561,Black Mountain,Queensland,Sunshine Coast,AU,Australia,"Black Mountain,Sunshine Coast,Queensland,Australia",No
5446,-34.59432,150.84126,Croom,New South Wales,Shellharbour,AU,Australia,"Croom,Shellharbour,New South Wales,Australia",No
5480,60.25,20.11667,Sund,Alands landsbygd,Sund,AX, ,"Sund,Sund,Alands landsbygd, ",No
5481,60.13023,20.66683,Sottunga,Alands skaergard,Sottunga,AX, ,"Sottunga,Sottunga,Alands skaergard, ",No
5482,60.28333,20.05,Saltvik,Alands landsbygd,Saltvik,AX, ,"Saltvik,Saltvik,Alands landsbygd, ",No
5483,60.11695,20.25819,Lumparland,Alands landsbygd,Lumparland,AX, ,"Lumparland,Lumparland,Alands landsbygd, ",No
5484,60.07178,20.08472,Lemland,Alands landsbygd,Lemland,AX, ,"Lemland,Lemland,Alands landsbygd, ",No
5485,60.26013,20.77892,Kumlinge,Alands skaergard,Kumlinge,AX, ,"Kumlinge,Kumlinge,Alands skaergard, ",No
5489,60.09726,19.93481,Mariehamn,Mariehamns stad,Mariehamn,AX, ,"Mariehamn,Mariehamn,Mariehamns stad, ",No
5490,60.14902,19.951,Jomala,Alands landsbygd,Jomala,AX, ,"Jomala,Jomala,Alands landsbygd, ",No
5491,60.21667,19.75,Hammarland,Alands landsbygd,Hammarland,AX, ,"Hammarland,Hammarland,Alands landsbygd, ",No
5492,60.37453,19.84455,Geta,Alands landsbygd,Geta,AX, ,"Geta,Geta,Alands landsbygd, ",No
5495,39.55298,44.97993,Norashen,Nakhichevan, ,AZ,Azerbaijan,"Norashen, ,Nakhichevan,Azerbaijan",No
5537,39.45833,48.545,Pushkino,Bilasuvar Rayon, ,AZ,Azerbaijan,"Pushkino, ,Bilasuvar Rayon,Azerbaijan",No
5570,41.63671,48.43028,Samur,Qusar, ,AZ,Azerbaijan,"Samur, ,Qusar,Azerbaijan",No
5683,43.2375,17.48389,Vitina,Federation of Bosnia and Herzegovina, ,BA,Bosnia and Herzegovina,"Vitina, ,Federation of Bosnia and Herzegovina,Bosnia and Herzegovina",No
5769,44.01194,18.25528,Mahala,Federation of Bosnia and Herzegovina, ,BA,Bosnia and Herzegovina,"Mahala, ,Federation of Bosnia and Herzegovina,Bosnia and Herzegovina",No
5893,13.1,-59.45,Crane,Saint Philip, ,BB,Barbados,"Crane, ,Saint Philip,Barbados",No
5897,13.25,-59.56667,Greenland,Saint Andrew, ,BB,Barbados,"Greenland, ,Saint Andrew,Barbados",No
5945,23.0391,90.76808,Raipur,Chittagong, ,BD,Bangladesh,"Raipur, ,Chittagong,Bangladesh",No
6004,51.21979,4.32664,Zwijndrecht,Flanders,Provincie Antwerpen,BE,Belgium,"Zwijndrecht,Provincie Antwerpen,Flanders,Belgium",No
6042,50.71469,4.3991,Waterloo,Wallonia,Province du Brabant Wallon,BE,Belgium,"Waterloo,Province du Brabant Wallon,Wallonia,Belgium",No
6126,49.53771,5.49031,Rouvroy,Wallonia,Province du Luxembourg,BE,Belgium,"Rouvroy,Province du Luxembourg,Wallonia,Belgium",No
6132,50.1631,5.2216,Rochefort,Wallonia,Province de Namur,BE,Belgium,"Rochefort,Province de Namur,Wallonia,Belgium",No
6194,50.95686,3.59425,Nazareth,Flanders,Provincie Oost-Vlaanderen,BE,Belgium,"Nazareth,Provincie Oost-Vlaanderen,Flanders,Belgium",No
6218,51.00232,3.80526,Melle,Flanders,Provincie Oost-Vlaanderen,BE,Belgium,"Melle,Provincie Oost-Vlaanderen,Flanders,Belgium",No
6247,51.24197,4.82313,Lille,Flanders,Provincie Antwerpen,BE,Belgium,"Lille,Provincie Antwerpen,Flanders,Belgium",No
6257,50.55696,3.89946,Lens,Wallonia,Province du Hainaut,BE,Belgium,"Lens,Province du Hainaut,Wallonia,Belgium",No
6309,51.15446,4.4707,Hove,Flanders,Provincie Antwerpen,BE,Belgium,"Hove,Provincie Antwerpen,Flanders,Belgium",No
6321,51.17611,4.34844,Hoboken,Flanders,Provincie Antwerpen,BE,Belgium,"Hoboken,Provincie Antwerpen,Flanders,Belgium",No
6328,50.72423,4.03481,Herne,Flanders,Provincie Vlaams-Brabant,BE,Belgium,"Herne,Provincie Vlaams-Brabant,Flanders,Belgium",No
6396,51.46791,4.46901,Essen,Flanders,Provincie Antwerpen,BE,Belgium,"Essen,Provincie Antwerpen,Flanders,Belgium",No
6431,51.25147,3.28144,Damme,Flanders,Provincie West-Vlaanderen,BE,Belgium,"Damme,Provincie West-Vlaanderen,Flanders,Belgium",No
6479,51.17337,5.57994,Bocholt,Flanders,Provincie Limburg,BE,Belgium,"Bocholt,Provincie Limburg,Flanders,Belgium",No
6497,50.55047,3.73484,Beloeil,Wallonia,Province du Hainaut,BE,Belgium,"Beloeil,Province du Hainaut,Wallonia,Belgium",No
6505,50.23699,4.23926,Beaumont,Wallonia,Province du Hainaut,BE,Belgium,"Beaumont,Province du Hainaut,Wallonia,Belgium",No
6590,12.6576,-1.89288,Bousse,Plateau-Central,Province du Kourweogo,BF,Burkina Faso,"Bousse,Province du Kourweogo,Plateau-Central,Burkina Faso",No
6605,42.4,25.08333,Zelenikovo,Plovdiv,Obshtina Brezovo,BG,Bulgaria,"Zelenikovo,Obshtina Brezovo,Plovdiv,Bulgaria",No
6630,42.83528,22.65167,Trun,Pernik,Obshtina Trun,BG,Bulgaria,"Trun,Obshtina Trun,Pernik,Bulgaria",No
6670,43.65,26.36667,Senovo,Ruse,Obshtina Vetovo,BG,Bulgaria,"Senovo,Obshtina Vetovo,Ruse,Bulgaria",No
6681,43.15,23.91667,Roman,Vratsa,Obshtina Roman,BG,Bulgaria,"Roman,Obshtina Roman,Vratsa,Bulgaria",No
6716,44.15861,22.78667,Novo Selo,Vidin,Obshtina Novo Selo,BG,Bulgaria,"Novo Selo,Obshtina Novo Selo,Vidin,Bulgaria",No
6717,43.35,27.2,Novi Pazar,Shumen,Obshtina Novi Pazar,BG,Bulgaria,"Novi Pazar,Obshtina Novi Pazar,Shumen,Bulgaria",No
6719,43.7,24.9,Nikopol,Pleven,Obshtina Nikopol,BG,Bulgaria,"Nikopol,Obshtina Nikopol,Pleven,Bulgaria",No
6748,43.88778,22.52139,Kula,Vidin,Obshtina Kula,BG,Bulgaria,"Kula,Obshtina Kula,Vidin,Bulgaria",No
6784,43.7,25.98333,Ivanovo,Ruse,Obshtina Ivanovo,BG,Bulgaria,"Ivanovo,Obshtina Ivanovo,Ruse,Bulgaria",No
6822,42.05,25.6,Dimitrovgrad,Khaskovo,Obshtina Dimitrovgrad,BG,Bulgaria,"Dimitrovgrad,Obshtina Dimitrovgrad,Khaskovo,Bulgaria",No
6847,43.5,25.8,Borovo,Ruse,Obshtina Borovo,BG,Bulgaria,"Borovo,Obshtina Borovo,Ruse,Bulgaria",No
6855,42.21667,24.01667,Belovo,Pazardzhik,Obshtina Belovo,BG,Bulgaria,"Belovo,Obshtina Belovo,Pazardzhik,Bulgaria",No
6860,42.73333,27.5,Bata,Burgas,Obshtina Pomorie,BG,Bulgaria,"Bata,Obshtina Pomorie,Burgas,Bulgaria",No
6926,7.22097,2.34017,Cove,Zou, ,BJ,Benin,"Cove, ,Zou,Benin",No
6938,17.89618,-62.84978,Gustavia, , ,BL, ,"Gustavia, , , ",No
6942,4.71667,115.06667,Bangar,Temburong, ,BN,Brunei Darussalam,"Bangar, ,Temburong,Brunei Darussalam",No
6944,-18.28333,-59.81667,San Pedro,Santa Cruz, ,BO,Bolivia,"San Pedro, ,Santa Cruz,Bolivia",No
6963,-18.49587,-66.8738,Totoral,Oruro, ,BO,Bolivia,"Totoral, ,Oruro,Bolivia",No
6972,-19.34,-64.99917,Sotomayor,Chuquisaca,Provincia Yamparaez,BO,Bolivia,"Sotomayor,Provincia Yamparaez,Chuquisaca,Bolivia",No
6978,-14.16667,-66.88333,Santa Rosa,El Beni, ,BO,Bolivia,"Santa Rosa, ,El Beni,Bolivia",No
6979,-17.96667,-63.35,Santa Rita,Santa Cruz, ,BO,Bolivia,"Santa Rita, ,Santa Cruz,Bolivia",No
6980,-20.55,-64.78333,Santa Elena,Chuquisaca,Provincia Nor Cinti,BO,Bolivia,"Santa Elena,Provincia Nor Cinti,Chuquisaca,Bolivia",No
6982,-20.91667,-66.05,Santa Barbara,Potosi, ,BO,Bolivia,"Santa Barbara, ,Potosi,Bolivia",No
6983,-13.28333,-64.71667,San Ramon,El Beni, ,BO,Bolivia,"San Ramon, ,El Beni,Bolivia",No
6984,-19.61667,-64.5,San Pedro,Chuquisaca,Provincia Azurduy,BO,Bolivia,"San Pedro,Provincia Azurduy,Chuquisaca,Bolivia",No
6985,-16.23717,-68.85063,San Pedro,La Paz, ,BO,Bolivia,"San Pedro, ,La Paz,Bolivia",No
6986,-16.21667,-68.83333,San Pablo,La Paz, ,BO,Bolivia,"San Pablo, ,La Paz,Bolivia",No
6989,-21.26667,-65.3,San Juan,Chuquisaca,Provincia Sud Cinti,BO,Bolivia,"San Juan,Provincia Sud Cinti,Chuquisaca,Bolivia",No
6991,-20.71667,-64.7,San Francisco,Chuquisaca,Provincia Sud Cinti,BO,Bolivia,"San Francisco,Provincia Sud Cinti,Chuquisaca,Bolivia",No
6992,-17.4,-63.75,San Carlos,Santa Cruz, ,BO,Bolivia,"San Carlos, ,Santa Cruz,Bolivia",No
7005,-19.58361,-65.75306,Potosi,Potosi, ,BO,Bolivia,"Potosi, ,Potosi,Bolivia",No
7015,-19.30878,-64.30273,Padilla,Chuquisaca, ,BO,Bolivia,"Padilla, ,Chuquisaca,Bolivia",No
7024,-19.04611,-65.42861,Maragua,Chuquisaca,Provincia Oropeza,BO,Bolivia,"Maragua,Provincia Oropeza,Chuquisaca,Bolivia",No
7043,-19.01667,-65.25,Huata,Chuquisaca,Provincia Oropeza,BO,Bolivia,"Huata,Provincia Oropeza,Chuquisaca,Bolivia",No
7049,-21.52661,-64.17299,Entre Rios,Tarija, ,BO,Bolivia,"Entre Rios, ,Tarija,Bolivia",No
7055,-16.43333,-60.9,Concepcion,Santa Cruz, ,BO,Bolivia,"Concepcion, ,Santa Cruz,Bolivia",No
7075,-20.64064,-65.20893,Camargo,Chuquisaca,Provincia Nor Cinti,BO,Bolivia,"Camargo,Provincia Nor Cinti,Chuquisaca,Bolivia",No
7076,-17.45659,-63.65876,Buena Vista,Santa Cruz, ,BO,Bolivia,"Buena Vista, ,Santa Cruz,Bolivia",No
7078,-19.55293,-65.45395,Betanzos,Potosi, ,BO,Bolivia,"Betanzos, ,Potosi,Bolivia",No
7090,17.643,-63.22649,Upper Hell's Gate,Saba, ,BQ, ,"Upper Hell's Gate, ,Saba, ",No
7091,17.6259,-63.24919,The Bottom,Saba, ,BQ, ,"The Bottom, ,Saba, ",No
7092,17.48268,-62.98324,Oranjestad,Sint Eustatius, ,BQ, ,"Oranjestad, ,Sint Eustatius, ",No
7093,12.15,-68.26667,Kralendijk,Bonaire, ,BQ, ,"Kralendijk, ,Bonaire, ",No
7094,12.13333,-68.26667,Dorp Tera Kora,Bonaire, ,BQ, ,"Dorp Tera Kora, ,Bonaire, ",No
7096,12.16667,-68.26667,Dorp Antriol,Bonaire, ,BQ, ,"Dorp Antriol, ,Bonaire, ",No
7100,-1.19667,-46.14,Viseu,Para,Viseu,BR,Brazil,"Viseu,Viseu,Para,Brazil",No
7145,-7.63583,-37.87833,Tavares,Paraiba,Tavares,BR,Brazil,"Tavares,Tavares,Paraiba,Brazil",No
7151,-4.83222,-40.32056,Tamboril,Ceara,Tamboril,BR,Brazil,"Tamboril,Tamboril,Ceara,Brazil",No
7229,-6.22944,-36.02278,Santa Cruz,Rio Grande do Norte,Santa Cruz,BR,Brazil,"Santa Cruz,Santa Cruz,Rio Grande do Norte,Brazil",No
7234,-6.80306,-35.08056,Rio Tinto,Paraiba,Rio Tinto,BR,Brazil,"Rio Tinto,Rio Tinto,Paraiba,Brazil",No
7259,-3.89333,-42.71,Porto,Piaui,Porto,BR,Brazil,"Porto,Porto,Piaui,Brazil",No
7277,-9.59722,-35.95667,Pilar,Alagoas,Pilar,BR,Brazil,"Pilar,Pilar,Alagoas,Brazil",No
7278,-7.26722,-35.26,Pilar,Paraiba,Pilar,BR,Brazil,"Pilar,Pilar,Paraiba,Brazil",No
7326,-7.02528,-42.13111,Oeiras,Piaui,Oeiras,BR,Brazil,"Oeiras,Oeiras,Piaui,Brazil",No
7374,-3.12389,-40.14667,Marco,Ceara,Marco,BR,Brazil,"Marco,Marco,Ceara,Brazil",No
7386,-5.115,-36.63444,Macau,Rio Grande do Norte,Macau,BR,Brazil,"Macau,Macau,Rio Grande do Norte,Brazil",No
7404,-7.53694,-37.81861,Juru,Paraiba,Juru,BR,Brazil,"Juru,Juru,Paraiba,Brazil",No
7453,-5.39639,-40.30861,Independencia,Ceara,Independencia,BR,Brazil,"Independencia,Independencia,Ceara,Brazil",No
7487,-5.73333,-44.15833,Fortuna,Maranhao,Fortuna,BR,Brazil,"Fortuna,Fortuna,Maranhao,Brazil",No
7492,-7.86806,-37.97472,Flores,Pernambuco,Flores,BR,Brazil,"Flores,Flores,Pernambuco,Brazil",No
7527,-7.58583,-35.10583,Condado,Pernambuco,Condado,BR,Brazil,"Condado,Condado,Pernambuco,Brazil",No
7551,-7.33561,-47.46218,Carolina,Maranhao,Carolina,BR,Brazil,"Carolina,Carolina,Maranhao,Brazil",No
7611,-6.69167,-35.53333,Belem,Paraiba,Belem,BR,Brazil,"Belem,Belem,Paraiba,Brazil",No
7612,-1.45583,-48.50444,Belem,Para,Belem,BR,Brazil,"Belem,Belem,Para,Brazil",No
7635,-6.9425,-38.9675,Aurora,Ceara,Aurora,BR,Brazil,"Aurora,Aurora,Ceara,Brazil",No
7640,-6.19444,-35.16028,Ares,Rio Grande do Norte,Ares,BR,Brazil,"Ares,Ares,Rio Grande do Norte,Brazil",No
7671,-6.4125,-38.01583,Alexandria,Rio Grande do Norte,Alexandria,BR,Brazil,"Alexandria,Alexandria,Rio Grande do Norte,Brazil",No
7673,-2.4041,-44.41669,Alcantara,Maranhao,Alcantara,BR,Brazil,"Alcantara,Alcantara,Maranhao,Brazil",No
7722,-21.22778,-50.86833,Valparaiso,Sao Paulo,Valparaiso,BR,Brazil,"Valparaiso,Valparaiso,Sao Paulo,Brazil",No
7736,-15.29333,-39.07528,Una,Bahia,Una,BR,Brazil,"Una,Una,Bahia,Brazil",No
7745,-21.12,-42.94278,Uba,Minas Gerais,Uba,BR,Brazil,"Uba,Uba,Minas Gerais,Brazil",No
7768,-24.71361,-53.74306,Toledo,Parana,Toledo,BR,Brazil,"Toledo,Toledo,Parana,Brazil",No
7800,-22.73028,-42.71417,Tangua,Rio de Janeiro,Tangua,BR,Brazil,"Tangua,Tangua,Rio de Janeiro,Brazil",No
7812,-22.59139,-46.52889,Socorro,Sao Paulo,Socorro,BR,Brazil,"Socorro,Socorro,Sao Paulo,Brazil",No
7816,-16.65889,-48.60806,Silvania,Goias,Silvania,BR,Brazil,"Silvania,Silvania,Goias,Brazil",No
7926,-29.19167,-54.86722,Santiago,Rio Grande do Sul,Santiago,BR,Brazil,"Santiago,Santiago,Rio Grande do Sul,Brazil",No
7929,-19.93556,-40.60028,Santa Teresa,Espirito Santo,Santa Teresa,BR,Brazil,"Santa Teresa,Santa Teresa,Espirito Santo,Brazil",No
7931,-27.87083,-54.48139,Santa Rosa,Rio Grande do Sul,Santa Rosa,BR,Brazil,"Santa Rosa,Santa Rosa,Rio Grande do Sul,Brazil",No
7953,-26.96083,-50.42694,Santa Cecilia,Santa Catarina,Santa Cecilia,BR,Brazil,"Santa Cecilia,Santa Cecilia,Santa Catarina,Brazil",No
7960,-23.20083,-47.28694,Salto,Sao Paulo,Salto,BR,Brazil,"Salto,Salto,Sao Paulo,Brazil",No
7961,-16.17028,-42.29028,Salinas,Minas Gerais,Salinas,BR,Brazil,"Salinas,Salinas,Minas Gerais,Brazil",No
7963,-19.86528,-47.44,Sacramento,Minas Gerais,Sacramento,BR,Brazil,"Sacramento,Sacramento,Minas Gerais,Brazil",No
8126,-18.94389,-46.9925,Patrocinio,Minas Gerais,Patrocinio,BR,Brazil,"Patrocinio,Patrocinio,Minas Gerais,Brazil",No
8146,-21.01639,-48.77361,Paraiso,Sao Paulo,Paraiso,BR,Brazil,"Paraiso,Paraiso,Sao Paulo,Brazil",No
8260,-20.24056,-56.37833,Miranda,Mato Grosso do Sul,Miranda,BR,Brazil,"Miranda,Miranda,Mato Grosso do Sul,Brazil",No
8272,-16.2225,-41.47694,Medina,Minas Gerais,Medina,BR,Brazil,"Medina,Medina,Minas Gerais,Brazil",No
8275,-23.66778,-46.46139,Maua,Sao Paulo,Maua,BR,Brazil,"Maua,Maua,Sao Paulo,Brazil",No
8308,-14.75583,-43.93222,Manga,Minas Gerais,Manga,BR,Brazil,"Manga,Manga,Minas Gerais,Brazil",No
8351,-28.4825,-48.78083,Laguna,Santa Catarina,Laguna,BR,Brazil,"Laguna,Laguna,Santa Catarina,Brazil",No
8356,-27.60491,-48.46713,Lagoa,Santa Catarina,Florianopolis,BR,Brazil,"Lagoa,Florianopolis,Santa Catarina,Brazil",No
8594,-15.53722,-47.33444,Formosa,Goias,Formosa,BR,Brazil,"Formosa,Formosa,Goias,Brazil",No
8612,-11.26833,-37.43833,Estancia,Sergipe,Estancia,BR,Brazil,"Estancia,Estancia,Sergipe,Brazil",No
8617,-19.7625,-44.31389,Esmeraldas,Minas Gerais,Esmeraldas,BR,Brazil,"Esmeraldas,Esmeraldas,Minas Gerais,Brazil",No
8628,-23.78694,-54.28361,Eldorado,Mato Grosso do Sul,Eldorado,BR,Brazil,"Eldorado,Eldorado,Mato Grosso do Sul,Brazil",No
8664,-22.64583,-47.19611,Cosmopolis,Sao Paulo,Cosmopolis,BR,Brazil,"Cosmopolis,Cosmopolis,Sao Paulo,Brazil",No
8684,-27.23417,-52.02778,Concordia,Santa Catarina,Concordia,BR,Brazil,"Concordia,Concordia,Santa Catarina,Brazil",No
8697,-25.29167,-49.22417,Colombo,Parana,Colombo,BR,Brazil,"Colombo,Colombo,Parana,Brazil",No
8707,-33.69111,-53.45667,Chui,Rio Grande do Sul,Chui,BR,Brazil,"Chui,Chui,Rio Grande do Sul,Brazil",No
8716,-15.30833,-49.59833,Ceres,Goias,Ceres,BR,Brazil,"Ceres,Ceres,Goias,Brazil",No
8772,-29.66917,-52.78889,Candelaria,Rio Grande do Sul,Candelaria,BR,Brazil,"Candelaria,Candelaria,Rio Grande do Sul,Brazil",No
8782,-21.75227,-41.33044,Campos,Rio de Janeiro,Campos Dos Goytacazes,BR,Brazil,"Campos,Campos Dos Goytacazes,Rio de Janeiro,Brazil",No
8903,-11.08944,-43.14167,Barra,Bahia,Barra,BR,Brazil,"Barra,Barra,Bahia,Brazil",No
9049,-0.97357,-62.9269,Barcelos,Amazonas,Barcelos,BR,Brazil,"Barcelos,Barcelos,Amazonas,Brazil",No
9087,-27.59137,-48.50756,Santa Monica,Santa Catarina,Florianopolis,BR,Brazil,"Santa Monica,Florianopolis,Santa Catarina,Brazil",No
9102,26.68711,-78.97702,West End,West Grand Bahama, ,BS,Bahamas,"West End, ,West Grand Bahama,Bahamas",No
9114,23.51616,-75.78665,George Town,Exuma, ,BS,Bahamas,"George Town, ,Exuma,Bahamas",No
9115,26.53333,-78.7,Freeport,Freeport, ,BS,Bahamas,"Freeport, ,Freeport,Bahamas",No
9120,24.05179,-74.53138,Cockburn Town,San Salvador, ,BS,Bahamas,"Cockburn Town, ,San Salvador,Bahamas",No
9121,23.1,-74.98333,Clarence Town,Long Island, ,BS,Bahamas,"Clarence Town, ,Long Island,Bahamas",No
9138,27.53333,89.88333,Pajo,Punakha, ,BT,Bhutan,"Pajo, ,Punakha,Bhutan",No
9454,53.72143,25.49927,Berezovka, , ,BY,Belarus,"Berezovka, , ,Belarus",No
9494,17.91598,-87.9659,San Pedro,Belize, ,BZ,Belize,"San Pedro, ,Belize,Belize",No
9496,16.09835,-88.8097,Punta Gorda,Toledo, ,BZ,Belize,"Punta Gorda, ,Toledo,Belize",No
9500,18.39375,-88.38849,Corozal,Corozal, ,BZ,Belize,"Corozal, ,Corozal,Belize",No
9509,51.30011,-114.03528,Airdrie,Alberta, ,CA,Canada,"Airdrie, ,Alberta,Canada",No
9512,46.81685,-64.06542,Alberton,Prince Edward Island, ,CA,Canada,"Alberton, ,Prince Edward Island,Canada",No
9514,49.10469,-97.55961,Altona,Manitoba, ,CA,Canada,"Altona, ,Manitoba,Canada",No
9515,45.83345,-64.19874,Amherst,Nova Scotia, ,CA,Canada,"Amherst, ,Nova Scotia,Canada",No
9521,50.44979,-119.20235,Armstrong,British Columbia, ,CA,Canada,"Armstrong, ,British Columbia,Canada",No
9524,50.72372,-121.28207,Ashcroft,British Columbia,Thompson-Nicola Regional District,CA,Canada,"Ashcroft,Thompson-Nicola Regional District,British Columbia,Canada",No
9534,54.13345,-114.40211,Barrhead,Alberta, ,CA,Canada,"Barrhead, ,Alberta,Canada",No
9540,53.35013,-113.41871,Beaumont,Alberta, ,CA,Canada,"Beaumont, ,Alberta,Canada",No
9544,45.11678,-72.98244,Bedford,Quebec,Monteregie,CA,Canada,"Bedford,Monteregie,Quebec,Canada",No
9545,46.08341,-62.88197,Belfast,Prince Edward Island, ,CA,Canada,"Belfast, ,Prince Edward Island,Canada",No
9550,45.05015,-64.73208,Berwick,Nova Scotia, ,CA,Canada,"Berwick, ,Nova Scotia,Canada",No
9551,52.0668,-108.00135,Biggar,Saskatchewan, ,CA,Canada,"Biggar, ,Saskatchewan,Canada",No
9552,50.70011,-114.2353,Black Diamond,Alberta, ,CA,Canada,"Black Diamond, ,Alberta,Canada",No
9571,49.84692,-99.95306,Brandon,Manitoba, ,CA,Canada,"Brandon, ,Manitoba,Canada",No
9574,44.38345,-64.51546,Bridgewater,Nova Scotia, ,CA,Canada,"Bridgewater, ,Nova Scotia,Canada",No
9587,43.3601,-80.31269,Cambridge,Ontario, ,CA,Canada,"Cambridge, ,Ontario,Canada",No
9600,49.63334,-102.26765,Carlyle,Saskatchewan, ,CA,Canada,"Carlyle, ,Saskatchewan,Canada",No
9605,48.51659,-53.08135,Catalina,Newfoundland and Labrador, ,CA,Canada,"Catalina, ,Newfoundland and Labrador,Canada",No
9613,44.54225,-64.23891,Chester,Nova Scotia, ,CA,Canada,"Chester, ,Nova Scotia,Canada",No
9632,43.80011,-79.48291,Concord,Ontario, ,CA,Canada,"Concord, ,Ontario,Canada",No
9644,49.09987,-116.50211,Creston,British Columbia, ,CA,Canada,"Creston, ,British Columbia,Canada",No
9646,49.61634,-125.03613,Cumberland,British Columbia, ,CA,Canada,"Cumberland, ,British Columbia,Canada",No
9647,52.33339,-106.76792,Dalmeny,Saskatchewan, ,CA,Canada,"Dalmeny, ,Saskatchewan,Canada",No
9648,45.78337,-72.0158,Danville,Quebec,Estrie,CA,Canada,"Danville,Estrie,Quebec,Canada",No
9655,42.91679,-81.41646,Delaware,Ontario, ,CA,Canada,"Delaware, ,Ontario,Canada",No
9656,49.19082,-100.49477,Deloraine,Manitoba, ,CA,Canada,"Deloraine, ,Manitoba,Canada",No
9662,51.66681,-114.13529,Didsbury,Alberta, ,CA,Canada,"Didsbury, ,Alberta,Canada",No
9663,46.07844,-64.68735,Dieppe,New Brunswick, ,CA,Canada,"Dieppe, ,New Brunswick,Canada",No
9667,42.98339,-81.06643,Dorchester,Ontario, ,CA,Canada,"Dorchester, ,Ontario,Canada",No
9672,48.78293,-123.70266,Duncan,British Columbia, ,CA,Canada,"Duncan, ,British Columbia,Canada",No
9678,53.90017,-110.9017,Elk Point,Alberta, ,CA,Canada,"Elk Point, ,Alberta,Canada",No
9680,50.5498,-119.15234,Enderby,British Columbia, ,CA,Canada,"Enderby, ,British Columbia,Canada",No
9686,56.06675,-118.38606,Fairview,Alberta, ,CA,Canada,"Fairview, ,Alberta,Canada",No
9688,45.28338,-72.98244,Farnham,Quebec,Monteregie,CA,Canada,"Farnham,Monteregie,Quebec,Canada",No
9702,60.00029,-111.88543,Fort Smith,Northwest Territories, ,CA,Canada,"Fort Smith, ,Northwest Territories,Canada",No
9706,49.11654,-117.55222,Fruitvale,British Columbia, ,CA,Canada,"Fruitvale, ,British Columbia,Canada",No
9707,48.7832,-54.21482,Gambo,Newfoundland and Labrador, ,CA,Canada,"Gambo, ,Newfoundland and Labrador,Canada",No
9716,43.75008,-81.71648,Goderich,Ontario, ,CA,Canada,"Goderich, ,Ontario,Canada",No
9717,51.29995,-116.9689,Golden,British Columbia, ,CA,Canada,"Golden, ,British Columbia,Canada",No
9723,49.03309,-118.4356,Grand Forks,British Columbia, ,CA,Canada,"Grand Forks, ,British Columbia,Canada",No
9729,44.98345,-64.89879,Greenwood,Nova Scotia, ,CA,Canada,"Greenwood, ,Nova Scotia,Canada",No
9734,45.48064,-73.66307,Hampstead,Quebec, ,CA,Canada,"Hampstead, ,Quebec,Canada",No
9735,45.52876,-65.85354,Hampton,New Brunswick, ,CA,Canada,"Hampton, ,New Brunswick,Canada",No
9738,44.15009,-81.03303,Hanover,Ontario, ,CA,Canada,"Hanover, ,Ontario,Canada",No
9751,49.38299,-121.44144,Hope,British Columbia, ,CA,Canada,"Hope, ,British Columbia,Canada",No
9753,54.39976,-126.67008,Houston,British Columbia, ,CA,Canada,"Houston, ,British Columbia,Canada",No
9754,45.45008,-74.14922,Hudson,Quebec,Monteregie,CA,Canada,"Hudson,Monteregie,Quebec,Canada",No
9756,52.20005,-105.1255,Humboldt,Saskatchewan, ,CA,Canada,"Humboldt, ,Saskatchewan,Canada",No
9757,45.08339,-74.16593,Huntingdon,Quebec,Monteregie,CA,Canada,"Huntingdon,Monteregie,Quebec,Canada",No
9758,45.33341,-79.21632,Huntsville,Ontario, ,CA,Canada,"Huntsville, ,Ontario,Canada",No
9760,50.53336,-103.66775,Indian Head,Saskatchewan, ,CA,Canada,"Indian Head, ,Saskatchewan,Canada",No
9774,46.43343,-63.64871,Kensington,Prince Edward Island, ,CA,Canada,"Kensington, ,Prince Edward Island,Canada",No
9780,49.67071,-115.9776,Kimberley,British Columbia,Regional District of East Kootenay,CA,Canada,"Kimberley,Regional District of East Kootenay,British Columbia,Canada",No
9783,44.22976,-76.48098,Kingston,Ontario, ,CA,Canada,"Kingston, ,Ontario,Canada",No
9784,45.45008,-73.86586,Kirkland,Quebec, ,CA,Canada,"Kirkland, ,Quebec,Canada",No
9802,53.76686,-112.80195,Lamont,Alberta, ,CA,Canada,"Lamont, ,Alberta,Canada",No
9803,50.84999,-101.71763,Langenburg,Saskatchewan, ,CA,Canada,"Langenburg, ,Saskatchewan,Canada",No
9828,42.98339,-81.23304,London,Ontario, ,CA,Canada,"London, ,Ontario,Canada",No
9841,56.91683,-117.61945,Manning,Alberta, ,CA,Canada,"Manning, ,Alberta,Canada",No
9844,48.7501,-86.43322,Marathon,Ontario, ,CA,Canada,"Marathon, ,Ontario,Canada",No
9852,46.31681,-78.69957,Mattawa,Ontario, ,CA,Canada,"Mattawa, ,Ontario,Canada",No
9858,50.91671,-102.80099,Melville,Saskatchewan, ,CA,Canada,"Melville, ,Saskatchewan,Canada",No
9862,44.94284,-65.07022,Middleton,Nova Scotia, ,CA,Canada,"Middleton, ,Nova Scotia,Canada",No
9863,44.7501,-79.88296,Midland,Ontario, ,CA,Canada,"Midland, ,Ontario,Canada",No
9871,46.16681,-62.64866,Montague,Prince Edward Island, ,CA,Canada,"Montague, ,Prince Edward Island,Canada",No
9881,49.1919,-98.10136,Morden,Manitoba, ,CA,Canada,"Morden, ,Manitoba,Canada",No
9883,49.35499,-97.36567,Morris,Manitoba, ,CA,Canada,"Morris, ,Manitoba,Canada",No
9892,49.49985,-117.28553,Nelson,British Columbia, ,CA,Canada,"Nelson, ,British Columbia,Canada",No
9909,43.76681,-79.4163,North York,Ontario, ,CA,Canada,"North York, ,Ontario,Canada",No
9929,45.73345,-63.86542,Oxford,Nova Scotia, ,CA,Canada,"Oxford, ,Nova Scotia,Canada",No
9935,49.01671,-57.59837,Pasadena,Newfoundland and Labrador, ,CA,Canada,"Pasadena, ,Newfoundland and Labrador,Canada",No
9942,44.90011,-76.24939,Perth,Ontario, ,CA,Canada,"Perth, ,Ontario,Canada",No
9944,44.30012,-78.31623,Peterborough,Ontario, ,CA,Canada,"Peterborough, ,Ontario,Canada",No
9947,44.00012,-77.13275,Picton,Ontario, ,CA,Canada,"Picton, ,Ontario,Canada",No
9967,44.71681,-75.51604,Prescott,Ontario, ,CA,Canada,"Prescott, ,Ontario,Canada",No
9973,49.45802,-120.51076,Princeton,British Columbia, ,CA,Canada,"Princeton, ,British Columbia,Canada",No
9980,49.44998,-112.65185,Raymond,Alberta, ,CA,Canada,"Raymond, ,Alberta,Canada",No
9985,45.46681,-76.68272,Renfrew,Ontario, ,CA,Canada,"Renfrew, ,Ontario,Canada",No
9990,45.66677,-72.1491,Richmond,Quebec,Estrie,CA,Canada,"Richmond,Estrie,Quebec,Canada",No
9991,49.17003,-123.13683,Richmond,British Columbia, ,CA,Canada,"Richmond, ,British Columbia,Canada",No
10010,45.0737,-67.05312,Saint Andrews,New Brunswick,Charlotte County,CA,Canada,"Saint Andrews,Charlotte County,New Brunswick,Canada",No
10060,46.03905,-65.04628,Salisbury,New Brunswick, ,CA,Canada,"Salisbury, ,New Brunswick,Canada",No
10090,45.8334,-79.38293,South River,Ontario, ,CA,Canada,"South River, ,Ontario,Canada",No
10093,45.65015,-64.04873,Springhill,Nova Scotia, ,CA,Canada,"Springhill, ,Nova Scotia,Canada",No
10098,48.55001,-58.5818,Stephenville,Newfoundland and Labrador, ,CA,Canada,"Stephenville, ,Newfoundland and Labrador,Canada",No
10103,43.36679,-80.94972,Stratford,Ontario, ,CA,Canada,"Stratford, ,Ontario,Canada",No
10110,45.72266,-65.50663,Sussex,New Brunswick, ,CA,Canada,"Sussex, ,New Brunswick,Canada",No
10111,45.10008,-72.61582,Sutton,Quebec,Monteregie,CA,Canada,"Sutton,Monteregie,Quebec,Canada",No
10127,45.6001,-75.24931,Thurso,Quebec,Outaouais,CA,Canada,"Thurso,Outaouais,Quebec,Canada",No
10136,45.36685,-63.26538,Truro,Nova Scotia, ,CA,Canada,"Truro, ,Nova Scotia,Canada",No
10141,44.10012,-79.11628,Uxbridge,Ontario, ,CA,Canada,"Uxbridge, ,Ontario,Canada",No
10154,53.35409,-110.85849,Vermilion,Alberta, ,CA,Canada,"Vermilion, ,Alberta,Canada",No
10160,49.8508,-100.93262,Virden,Manitoba, ,CA,Canada,"Virden, ,Manitoba,Canada",No
10161,50.40008,-113.25189,Vulcan,Alberta, ,CA,Canada,"Vulcan, ,Alberta,Canada",No
10163,51.94999,-103.80102,Wadena,Saskatchewan, ,CA,Canada,"Wadena, ,Saskatchewan,Canada",No
10165,45.6668,-75.83265,Wakefield,Quebec,Outaouais,CA,Canada,"Wakefield,Outaouais,Quebec,Canada",No
10168,45.95007,-71.9824,Warwick,Quebec,Mauricie,CA,Canada,"Warwick,Mauricie,Quebec,Canada",No
10175,55.14995,-119.13602,Wembley,Alberta, ,CA,Canada,"Wembley, ,Alberta,Canada",No
10182,50.43338,-104.36778,White City,Saskatchewan, ,CA,Canada,"White City, ,Saskatchewan,Canada",No
10191,43.88793,-81.31145,Wingham,Ontario, ,CA,Canada,"Wingham, ,Ontario,Canada",No
10196,51.76674,-104.18436,Wynyard,Saskatchewan, ,CA,Canada,"Wynyard, ,Saskatchewan,Canada",No
10198,43.83345,-66.11557,Yarmouth,Nova Scotia, ,CA,Canada,"Yarmouth, ,Nova Scotia,Canada",No
10208,46.98043,-70.55493,Montmagny,Quebec,Chaudiere-Appalaches,CA,Canada,"Montmagny,Chaudiere-Appalaches,Quebec,Canada",No
10212,46.1351,-60.1831,Sydney,Nova Scotia, ,CA,Canada,"Sydney, ,Nova Scotia,Canada",No
10220,47.61814,-65.65112,Bathurst,New Brunswick, ,CA,Canada,"Bathurst, ,New Brunswick,Canada",No
10222,43.2,-80.38333,Paris,Ontario, ,CA,Canada,"Paris, ,Ontario,Canada",No
10225,48.34935,-64.67926,Chandler,Quebec,Gaspesie-Iles-de-la-Madeleine,CA,Canada,"Chandler,Gaspesie-Iles-de-la-Madeleine,Quebec,Canada",No
10229,47.68065,-68.8781,Cabano,Quebec,Bas-Saint-Laurent,CA,Canada,"Cabano,Bas-Saint-Laurent,Quebec,Canada",No
10230,48.73808,-69.08478,Forestville,Quebec,Cote-Nord,CA,Canada,"Forestville,Cote-Nord,Quebec,Canada",No
10234,46.43401,-71.01168,Sainte-Marie,Quebec,Chaudiere-Appalaches,CA,Canada,"Sainte-Marie,Chaudiere-Appalaches,Quebec,Canada",No
10236,43.77223,-79.25666,Scarborough,Ontario, ,CA,Canada,"Scarborough, ,Ontario,Canada",No
10263,46.88026,-71.51464,Shannon,Quebec,Capitale-Nationale,CA,Canada,"Shannon,Capitale-Nationale,Quebec,Canada",No
10264,46.69314,-71.06927,Saint-Henri,Quebec,Chaudiere-Appalaches,CA,Canada,"Saint-Henri,Chaudiere-Appalaches,Quebec,Canada",No
10273,-12.15681,96.82251,West Island, , ,CC, ,"West Island, , , ",No
10276,2.14838,27.99466,Wamba,Eastern Province, ,CD,"Congo, Democratic Republic of the","Wamba, ,Eastern Province,Congo, Democratic Republic of the",No
10285,-5.38771,25.74885,Lubao,Kasai-Oriental, ,CD,"Congo, Democratic Republic of the","Lubao, ,Kasai-Oriental,Congo, Democratic Republic of the",No
10392,-4.20493,13.28608,Kayes,Bouenza, ,CG,Congo,"Kayes, ,Bouenza,Congo",No
10415,47.13673,7.92495,Zell,Lucerne,Willisau District,CH,Switzerland,"Zell,Willisau District,Lucerne,Switzerland",No
10433,47.48139,7.97577,Wittnau,Aargau,Bezirk Laufenburg,CH,Switzerland,"Wittnau,Bezirk Laufenburg,Aargau,Switzerland",No
10465,47.34365,7.86982,Wangen,Solothurn,Bezirk Olten,CH,Switzerland,"Wangen,Bezirk Olten,Solothurn,Switzerland",No
10472,47.46859,9.28605,Waldkirch,Saint Gallen,Wahlkreis St. Gallen,CH,Switzerland,"Waldkirch,Wahlkreis St. Gallen,Saint Gallen,Switzerland",No
10473,47.38333,7.75,Waldenburg,Basel-Landschaft,Bezirk Waldenburg,CH,Switzerland,"Waldenburg,Bezirk Waldenburg,Basel-Landschaft,Switzerland",No
10545,46.74292,8.98716,Trun,Grisons,Surselva District,CH,Switzerland,"Trun,Surselva District,Grisons,Switzerland",No
10549,47.40782,9.46498,Trogen,Appenzell Ausserrhoden,Bezirk Mittelland,CH,Switzerland,"Trogen,Bezirk Mittelland,Appenzell Ausserrhoden,Switzerland",No
10574,47.26898,8.85024,Tann,Zurich,Bezirk Hinwil,CH,Switzerland,"Tann,Bezirk Hinwil,Zurich,Switzerland",No
10575,46.34503,6.83041,Tanay,Valais,Monthey District,CH,Switzerland,"Tanay,Monthey District,Valais,Switzerland",No
10581,47.53602,8.09628,Sulz,Aargau,Bezirk Laufenburg,CH,Switzerland,"Sulz,Bezirk Laufenburg,Aargau,Switzerland",No
10589,47.04975,8.61214,Steinen,Schwyz,Bezirk Schwyz,CH,Switzerland,"Steinen,Bezirk Schwyz,Schwyz,Switzerland",No
10591,47.54403,7.95256,Stein,Aargau,Bezirk Rheinfelden,CH,Switzerland,"Stein,Bezirk Rheinfelden,Aargau,Switzerland",No
10594,47.38372,8.16606,Staufen,Aargau,Bezirk Lenzburg,CH,Switzerland,"Staufen,Bezirk Lenzburg,Aargau,Switzerland",No
10633,47.01705,8.17261,Schwarzenberg,Lucerne,Lucerne-Land District,CH,Switzerland,"Schwarzenberg,Lucerne-Land District,Lucerne,Switzerland",No
10643,46.8575,7.25031,Schmitten,Fribourg,Sense District,CH,Switzerland,"Schmitten,Sense District,Fribourg,Switzerland",No
10677,46.63763,6.97363,Sales,Fribourg,Gruyere District,CH,Switzerland,"Sales,Gruyere District,Fribourg,Switzerland",No
10679,46.21826,7.0032,Saint-Maurice,Valais,Saint-Maurice District,CH,Switzerland,"Saint-Maurice,Saint-Maurice District,Valais,Switzerland",No
10703,46.61916,6.82225,Rue,Fribourg,Glane District,CH,Switzerland,"Rue,Glane District,Fribourg,Switzerland",No
10719,47.13521,7.81334,Rohrbach,Bern,Oberaargau,CH,Switzerland,"Rohrbach,Oberaargau,Bern,Switzerland",No
10720,47.41029,7.95333,Rohr,Solothurn,Bezirk Goesgen,CH,Switzerland,"Rohr,Bezirk Goesgen,Solothurn,Switzerland",No
10732,47.55437,7.79403,Rheinfelden,Aargau,Bezirk Rheinfelden,CH,Switzerland,"Rheinfelden,Bezirk Rheinfelden,Aargau,Switzerland",No
10749,47.70797,8.80949,Ramsen,Schaffhausen,Bezirk Stein,CH,Switzerland,"Ramsen,Bezirk Stein,Schaffhausen,Switzerland",No
10753,45.98647,8.86877,Pura,Ticino,Lugano District,CH,Switzerland,"Pura,Lugano District,Ticino,Switzerland",No
10766,46.57887,9.92015,Ponte,Grisons,Maloja District,CH,Switzerland,"Ponte,Maloja District,Grisons,Switzerland",No
10785,47.28228,8.40432,Ottenbach,Zurich,Bezirk Affoltern,CH,Switzerland,"Ottenbach,Bezirk Affoltern,Zurich,Switzerland",No
10813,47.15642,8.11567,Oberkirch,Lucerne,Sursee District,CH,Switzerland,"Oberkirch,Sursee District,Lucerne,Switzerland",No
10855,47.27428,8.33854,Muri,Aargau,Bezirk Muri,CH,Switzerland,"Muri,Bezirk Muri,Aargau,Switzerland",No
10856,46.93122,7.48658,Muri,Bern,Bern-Mittelland District,CH,Switzerland,"Muri,Bern-Mittelland District,Bern,Switzerland",No
10879,46.31265,7.48408,Montana,Valais,Sierre District,CH,Switzerland,"Montana,Sierre District,Valais,Switzerland",No
10880,46.79289,6.61222,Montagny,Vaud,Jura-Nord vaudois District,CH,Switzerland,"Montagny,Jura-Nord vaudois District,Vaud,Switzerland",No
10910,47.30374,7.6282,Matzendorf,Solothurn,Bezirk Thal,CH,Switzerland,"Matzendorf,Bezirk Thal,Solothurn,Switzerland",No
10918,46.77611,7.16459,Marly,Fribourg,Sarine District,CH,Switzerland,"Marly,Sarine District,Fribourg,Switzerland",No
10945,46.30016,8.97986,Lodrino,Ticino,Riviera District,CH,Switzerland,"Lodrino,Riviera District,Ticino,Switzerland",No
10949,46.84872,7.67491,Linden,Bern,Bern-Mittelland District,CH,Switzerland,"Linden,Bern-Mittelland District,Bern,Switzerland",No
10966,46.27965,7.44596,Lens,Valais,Sierre District,CH,Switzerland,"Lens,Sierre District,Valais,Switzerland",No
10983,47.55985,8.06225,Laufenburg,Aargau,Bezirk Laufenburg,CH,Switzerland,"Laufenburg,Bezirk Laufenburg,Aargau,Switzerland",No
10984,47.42193,7.49946,Laufen,Basel-Landschaft,Bezirk Laufen,CH,Switzerland,"Laufen,Bezirk Laufen,Basel-Landschaft,Switzerland",No
11015,47.60972,8.2375,Koblenz,Aargau,Bezirk Zurzach,CH,Switzerland,"Koblenz,Bezirk Zurzach,Aargau,Switzerland",No
11023,47.41159,9.0402,Kirchberg,Saint Gallen,Wahlkreis Toggenburg,CH,Switzerland,"Kirchberg,Wahlkreis Toggenburg,Saint Gallen,Switzerland",No
11024,47.08538,7.58288,Kirchberg,Bern,Emmental District,CH,Switzerland,"Kirchberg,Emmental District,Bern,Switzerland",No
11044,46.68387,7.86638,Interlaken,Bern,Interlaken-Oberhasli District,CH,Switzerland,"Interlaken,Interlaken-Oberhasli District,Bern,Switzerland",No
11055,47.49425,9.46246,Horn,Saint Gallen,Wahlkreis Rorschach,CH,Switzerland,"Horn,Wahlkreis Rorschach,Saint Gallen,Switzerland",No
11058,47.63466,9.0079,Homburg,Thurgau,Frauenfeld District,CH,Switzerland,"Homburg,Frauenfeld District,Thurgau,Switzerland",No
11060,47.42512,7.77136,Holstein,Basel-Landschaft,Bezirk Waldenburg,CH,Switzerland,"Holstein,Bezirk Waldenburg,Basel-Landschaft,Switzerland",No
11083,47.44255,9.53293,Heiden,Appenzell Ausserrhoden,Bezirk Vorderland,CH,Switzerland,"Heiden,Bezirk Vorderland,Appenzell Ausserrhoden,Switzerland",No
11102,46.25237,7.45365,Grone,Valais,Sierre District,CH,Switzerland,"Grone,Sierre District,Valais,Switzerland",No
11178,46.84424,9.47684,Felsberg,Grisons,Imboden District,CH,Switzerland,"Felsberg,Imboden District,Grisons,Switzerland",No
11197,47.30298,8.59743,Erlenbach,Zurich,Bezirk Meilen,CH,Switzerland,"Erlenbach,Bezirk Meilen,Zurich,Switzerland",No
11208,47.07772,8.27888,Emmen,Lucerne,Hochdorf District,CH,Switzerland,"Emmen,Hochdorf District,Lucerne,Switzerland",No
11300,47.18213,8.46358,Cham,Zug,Zug,CH,Switzerland,"Cham,Zug,Zug,Switzerland",No
11306,46.43241,6.93855,Caux,Vaud,Riviera-Pays-d'Enhaut District,CH,Switzerland,"Caux,Riviera-Pays-d'Enhaut District,Vaud,Switzerland",No
11327,47.05901,7.62786,Burgdorf,Bern,Emmental District,CH,Switzerland,"Burgdorf,Emmental District,Bern,Switzerland",No
11331,47.37348,9.42507,Buhler,Appenzell Ausserrhoden,Bezirk Mittelland,CH,Switzerland,"Buhler,Bezirk Mittelland,Appenzell Ausserrhoden,Switzerland",No
11366,46.37808,8.90991,Bodio,Ticino,Leventina District,CH,Switzerland,"Bodio,Leventina District,Ticino,Switzerland",No
11370,47.43587,8.20801,Birr,Aargau,Bezirk Brugg,CH,Switzerland,"Birr,Bezirk Brugg,Aargau,Switzerland",No
11377,46.53761,6.33362,Biere,Vaud,Morges District,CH,Switzerland,"Biere,Morges District,Vaud,Switzerland",No
11389,47.69763,8.57431,Beringen,Schaffhausen,Bezirk Schaffhausen,CH,Switzerland,"Beringen,Bezirk Schaffhausen,Schaffhausen,Switzerland",No
11391,47.5797,9.16635,Berg,Thurgau,Weinfelden District,CH,Switzerland,"Berg,Weinfelden District,Thurgau,Switzerland",No
11397,46.25739,6.15475,Bellevue,Geneva,Geneva,CH,Switzerland,"Bellevue,Geneva,Geneva,Switzerland",No
11420,47.47333,8.30592,Baden,Aargau,Bezirk Baden,CH,Switzerland,"Baden,Bezirk Baden,Aargau,Switzerland",No
11444,46.21064,7.25776,Ardon,Valais,Conthey District,CH,Switzerland,"Ardon,Conthey District,Valais,Switzerland",No
11459,46.88042,8.64441,Altdorf,Uri,Uri,CH,Switzerland,"Altdorf,Uri,Uri,Switzerland",No
11506,47.52262,8.51564,Hochfelden,Zurich,Bezirk Buelach,CH,Switzerland,"Hochfelden,Bezirk Buelach,Zurich,Switzerland",No
11530,47.47778,8.50646,Hofstetten,Zurich,Bezirk Dielsdorf,CH,Switzerland,"Hofstetten,Bezirk Dielsdorf,Zurich,Switzerland",No
11599,47.28325,8.71038,Esslingen,Zurich,Bezirk Uster,CH,Switzerland,"Esslingen,Bezirk Uster,Zurich,Switzerland",No
11618,47.41182,8.64516,Wangen,Zurich,Bezirk Uster,CH,Switzerland,"Wangen,Bezirk Uster,Zurich,Switzerland",No
11708,47.53954,8.78887,Sulz,Zurich,Bezirk Winterthur,CH,Switzerland,"Sulz,Bezirk Winterthur,Zurich,Switzerland",No
11735,47.74025,8.66298,Stetten,Schaffhausen,Bezirk Reiat,CH,Switzerland,"Stetten,Bezirk Reiat,Schaffhausen,Switzerland",No
11742,47.46396,8.20988,Hausen,Aargau,Bezirk Brugg,CH,Switzerland,"Hausen,Bezirk Brugg,Aargau,Switzerland",No
11743,46.30212,7.53619,Veyras,Valais,Sierre District,CH,Switzerland,"Veyras,Sierre District,Valais,Switzerland",No
11757,46.64272,6.47661,Chevilly,Vaud,Morges District,CH,Switzerland,"Chevilly,Morges District,Vaud,Switzerland",No
11770,47.44874,8.00273,Oberhof,Aargau,Bezirk Laufenburg,CH,Switzerland,"Oberhof,Bezirk Laufenburg,Aargau,Switzerland",No
11777,8.28333,-7.68333,Touba,Bafing, ,CI,Cte d'Ivoire,"Touba, ,Bafing,Cte d'Ivoire",No
11814,6.99041,-5.7442,Bouafle,Marahoue, ,CI,Cte d'Ivoire,"Bouafle, ,Marahoue,Cte d'Ivoire",No
11826,6.67342,-3.96938,Arrah,Lacs, ,CI,Cte d'Ivoire,"Arrah, ,Lacs,Cte d'Ivoire",No
11846,-39.28569,-72.2279,Villarrica,Araucania,Provincia de Cautin,CL,Chile,"Villarrica,Provincia de Cautin,Araucania,Chile",No
11850,-38.23291,-72.33292,Victoria,Araucania,Provincia de Malleco,CL,Chile,"Victoria,Provincia de Malleco,Araucania,Chile",No
11851,-33.03932,-71.62725,Valparaiso,Valparaiso,Provincia de Valparaiso,CL,Chile,"Valparaiso,Provincia de Valparaiso,Valparaiso,Chile",No
11855,-36.61756,-72.95593,Tome,Biobio,Provincia de Concepcion,CL,Chile,"Tome,Provincia de Concepcion,Biobio,Chile",No
11863,-34.43333,-71.08333,San Vicente,O'Higgins,Provincia de Cachapoal,CL,Chile,"San Vicente,Provincia de Cachapoal,O'Higgins,Chile",No
11865,-34.63881,-71.36576,Santa Cruz,O'Higgins,Provincia de Colchagua,CL,Chile,"Santa Cruz,Provincia de Colchagua,O'Higgins,Chile",No
11867,-35.5952,-71.72924,San Javier,Maule,Provincia de Linares,CL,Chile,"San Javier,Provincia de Linares,Maule,Chile",No
11868,-32.74976,-70.72584,San Felipe,Valparaiso,Provincia de San Felipe,CL,Chile,"San Felipe,Provincia de San Felipe,Valparaiso,Chile",No
11869,-35.53777,-71.487,San Clemente,Maule,Provincia de Talca,CL,Chile,"San Clemente,Provincia de Talca,Maule,Chile",No
11870,-36.42477,-71.958,San Carlos,Biobio,Provincia de Nuble,CL,Chile,"San Carlos,Provincia de Nuble,Biobio,Chile",No
11872,-33.59473,-71.60746,San Antonio,Valparaiso,San Antonio Province,CL,Chile,"San Antonio,San Antonio Province,Valparaiso,Chile",No
11873,-31.77922,-70.96389,Salamanca,Coquimbo,Provincia de Choapa,CL,Chile,"Salamanca,Provincia de Choapa,Coquimbo,Chile",No
11895,-36.14311,-71.82605,Parral,Maule,Provincia de Linares,CL,Chile,"Parral,Provincia de Linares,Maule,Chile",No
11909,-37.46973,-72.35366,Los Angeles,Biobio,Provincia de Biobio,CL,Chile,"Los Angeles,Provincia de Biobio,Biobio,Chile",No
11918,-40.29313,-73.08167,La Union,Los Lagos, ,CL,Chile,"La Union, ,Los Lagos,Chile",No
11922,-37.28415,-72.71105,La Laja,Biobio,Provincia de Biobio,CL,Chile,"La Laja,Provincia de Biobio,Biobio,Chile",No
11932,-33.67969,-70.98482,El Monte,Santiago Metropolitan,Provincia de Talagante,CL,Chile,"El Monte,Provincia de Talagante,Santiago Metropolitan,Chile",No
